state,cluster,county,total_pop,fips,white,black,asian,hispanic,area_land,lon,lat,votes_gop,votes_dem,total_votes,median_income,pop25,no_hs,some_hs,hs,some_college,associates,bachelors,graduate,never,rarely,sometimes,frequently,always,pop_density,per_white,per_black,per_asian,per_hispanic,per_total_votes,per_votes_gop,per_votes_dem,education,mask,per_gop
Alabama,0,Autauga-Bibb-Chambers-Cherokee-Chilton-Clay-Cleburne-Colbert-Coosa-Cullman-Elmore-Fayette-Franklin-Lamar-Lauderdale-Lawrence-Lee-Marion-Pickens-Randolph-Talladega-Tallapoosa-Tuscaloosa-Walker-Winston,1282042,01001-01007-01017-01019-01021-01027-01029-01033-01037-01043-01051-01057-01059-01075-01077-01079-01081-01093-01107-01111-01121-01123-01125-01127-01133,948951,242950,15387,48412,44122.915576,-86.85333076453107,33.55132313323298,381837.0,142379.0,536731.0,46477.96256596898,854852,44199,90817,292802,181629,69161,108356,67888,0.08012769238449287,0.07486971409673006,0.15573473801950327,0.2123760649027099,0.47698393188366683,29.05614878943647,0.7401871389548861,0.18950237199717326,0.012001946894095514,0.03776163339422577,0.418653211049248,0.7114122344340088,0.2652706849427367,2.862553985953124,2.9314031123785336,0.728396309918049
Alabama,1,Barbour-Bullock-Butler-Choctaw-Clarke-Conecuh-Crenshaw-Dallas-Escambia-Greene-Hale-Lowndes-Macon-Marengo-Monroe-Perry-Pike-Russell-Sumter-Washington-Wilcox,419390,01005-01011-01013-01023-01025-01035-01041-01047-01053-01063-01065-01085-01087-01091-01099-01105-01109-01113-01119-01129-01131,186960,208094,2891,11332,44918.741938,-87.09675141521782,31.989500508137308,92455.0,103858.0,198541.0,34206.09933951692,290487,16312,39170,112465,55602,22976,26844,17118,0.06713485776961778,0.07618076015164882,0.15016482510312595,0.22228419847874295,0.48402872028422217,9.336637267777258,0.44579031450439927,0.4961825508476597,0.006893345096449606,0.027020195998950856,0.473404229953027,0.4656720778076065,0.5231060586982034,2.6153941484472627,2.9794778869310186,0.4709570940284138
Alabama,2,Montgomery,226486,01101,74059,133283,7353,8344,2033.918497,-86.20969374546024,32.22068338613538,33928.0,58669.0,94572.0,47990.0,150042,6616,15030,38289,31763,10213,28342,19789,0.056,0.09500000000000001,0.123,0.212,0.513,111.35451117341405,0.32699151382425407,0.5884822902960889,0.032465582861633834,0.03684112925302226,0.4175622334272317,0.3587531193164996,0.6203633210675464,3.2537089614907826,3.029,0.3664049591239457
Alabama,3,Blount-Calhoun-DeKalb-Etowah-Jackson-Limestone-Marshall-Morgan-St. Clair-Shelby,1019420,01009-01015-01049-01055-01071-01083-01095-01103-01115-01117,800521,111621,11081,72491,17516.698065999997,-86.30541498041372,34.1846809762212,326023.0,86988.0,424606.0,53335.21141335269,690177,38737,68304,208546,155643,58722,104135,56090,0.07337089717682603,0.08311703910066508,0.12818274607129546,0.22814466461321142,0.48707321221871264,58.19704125509245,0.7852710364717193,0.10949461458476388,0.010869906417374585,0.0711100429656079,0.4165172352906555,0.7678247598950556,0.2048675713484972,2.962179267057581,2.9722093739577407,0.789380912372794
Alabama,4,Baldwin-Mobile,636444,01003-01097,419294,167703,10840,22977,7301.599706999999,-87.93451799723752,30.753618365441024,163867.0,86838.0,257477.0,49601.96650137325,424688,13171,39386,133565,92811,35977,72464,37314,0.07910451194449158,0.06614172810176544,0.10059699203700562,0.2717094072691391,0.4814473606475982,87.16500842820032,0.6588073734688362,0.2635000094273809,0.017032134798976816,0.03610215509927032,0.40455562468968204,0.6364335455205707,0.337265076103885,3.0965343970161623,3.008253376573587,0.6536247781256855
Alabama,5,Jefferson,658573,01073,326091,284126,11686,26873,2878.465205,-86.896429313041,33.55537844384208,130614.0,151581.0,290111.0,51979.0,448732,13478,32547,120037,100061,37147,88777,56685,0.049,0.037000000000000005,0.107,0.179,0.628,228.79310781872036,0.4951478423804195,0.43142673629195244,0.017744426206358292,0.04080489178876146,0.4405145671019006,0.45022077756444945,0.5224931147043718,3.354757405310965,3.3,0.46285015680646363
Alabama,6,Madison,372909,01089,240537,90968,9869,19352,2076.091216,-86.55081126278967,34.76336322388818,89199.0,62435.0,159473.0,63417.0,243785,7113,14504,50768,49892,19858,62705,38945,0.062,0.05,0.123,0.177,0.589,179.62072047994255,0.6450286799192296,0.24394155142407398,0.02646490162479318,0.0518946981703311,0.42764588679811966,0.5593360631580268,0.3915082803985628,3.660368767561581,3.183,0.5882519751506918
Alabama,7,Coffee-Covington-Dale-Geneva-Henry-Houston,287921,01031-01039-01045-01061-01067-01069,204415,59030,2939,13497,10325.618378,-85.8275190265567,31.300382450192398,89002.0,25336.0,116654.0,45852.79150530875,197195,9766,20893,63700,46254,19439,23820,13323,0.10888476005570973,0.1084700699150114,0.12176535924784923,0.22563961989573533,0.4350958318427624,27.884141119669028,0.7099690540113434,0.20502151631871243,0.010207661129268098,0.04687744207612505,0.4051597486810618,0.7629571210588578,0.21718929483772523,2.8593473465351558,2.7693029754689658,0.7784113767951162
Alaska,0,Aleutians East Borough-Aleutians West Census Area-Bethel Census Area-Bristol Bay Borough-Denali Borough-Dillingham Census Area-Fairbanks North Star Borough-Haines Borough-Hoonah-Angoon Census Area-Juneau City and Borough-Kenai Peninsula Borough-Ketchikan Gateway Borough-Kodiak Island Borough-Kusilvak Census Area-Lake and Peninsula Borough-Matanuska-Susitna Borough-Nome Census Area-North Slope Borough-Northwest Arctic Borough-Petersburg Borough-Prince of Wales-Hyder Census Area-Sitka City and Borough-Skagway-Southeast Fairbanks Census Area-Valdez-Cordova Census Area-Wrangell City and Borough-Yakutat City and Borough-Yukon-Koyukuk Census Area,443545,02013-02016-02050-02060-02068-02070-02090-02100-02105-02110-02122-02130-02150-02158-02164-02170-02180-02185-02188-02195-02198-02220-02230-02240-02261-02275-02282-02290,275614,8831,18500,26220,1474420.133122,-151.96453539027604,63.778489310620984,63217.5,35974.5,114593.5,72228.11150390602,285733,7535,15358,88098,79429,23387,45976,25950,0.059501752922476864,0.0644882210373243,0.09498626520420703,0.2713548568916344,0.5094103732428501,0.3008267386181298,0.6213890360617299,0.019910042949418887,0.04170940941730828,0.05911463323901746,0.2583582274628279,0.5516674156911169,0.3139314184486904,3.1811831325048208,3.106166815092042,0.6373245826276313
Alaska,1,Anchorage,288000,02020,164464,15359,28106,26992,4419.562836,-149.1426986370077,61.14998173762829,39942.0,32130.0,81678.0,83280.0,191994,4710,7157,45753,49990,16665,42077,25642,0.042,0.05,0.049,0.196,0.6629999999999999,65.16481622437102,0.5710555555555555,0.05332986111111111,0.09759027777777778,0.09372222222222222,0.28360416666666666,0.4890178505840006,0.39337398075369134,3.5393293540423136,3.388,0.5541958041958042
Arizona,0,Pima-Pinal,1510068,04019-04021,795825,57439,39496,537722,37692.255063000004,-111.62527401413955,32.39510068472602,200876.0,231386.0,454567.0,52420.09450766456,966677,46472,74719,237954,249424,87023,159697,111388,0.026064689802048648,0.033500538386350816,0.0800487865447119,0.12927466246553138,0.7308048538211526,40.0630845110229,0.5270126908192214,0.038037359906971074,0.02615511354455561,0.35609124887091176,0.3010241922880294,0.4419062536435773,0.5090250722115772,3.221142118825626,3.504641514156979,0.4647089033965512
Arizona,1,Mohave-Yavapai,447280,04015-04025,351312,4065,5001,70560,55515.30033,-113.30151112727783,35.28578885645067,113518.0,46190.0,166969.0,46900.13183240923,327701,11162,28418,98502,96878,29367,38777,24597,0.040487614022536214,0.08391075612591666,0.09191075612591665,0.1703074315864783,0.6133834421391522,8.056877965916248,0.7854408871400465,0.009088266857449472,0.011180915757467358,0.1577535324628868,0.3732986049007333,0.6798747072809923,0.2766381783444831,2.975245727049963,3.2321883316937936,0.7107846820447317
Arizona,2,Graham-Greenlee,48335,04009-04011,24123,752,302,17405,16743.438377,-109.70366016509726,33.013479189000584,9917.0,4393.0,15182.0,53240.39929657598,29486,1286,2751,9183,8967,2992,2822,1485,0.09814405710147925,0.07132307851453398,0.2232447501810282,0.05686014275369815,0.5512314678804179,2.8868025140162645,0.499079342091652,0.015558084203992966,0.006248060411709941,0.36009103134374676,0.3140995138098686,0.6532077460150177,0.2893558160980108,2.8150986909041578,2.893318878659356,0.6930118798043327
Arizona,3,Santa Cruz,46498,04023,6966,203,265,38711,3203.6132399999997,-110.84790882167036,31.525089978446267,3650.0,10684.0,14926.0,40467.0,29228,3404,3723,7957,6308,1698,3993,2145,0.028,0.002,0.058,0.07400000000000001,0.837,14.514236431361486,0.14981289517828725,0.0043657791732977765,0.005699169856768033,0.832530431416405,0.32100305389479117,0.24453972933136808,0.7157979364866676,2.6751060626796224,3.6879999999999997,0.25463931910143717
Arizona,4,Yuma,213787,04027,64453,3975,2484,138131,14281.127830000001,-113.90666743173635,32.76895712125095,20586.0,18336.0,40759.0,44058.0,130819,18357,18095,33924,31847,9281,12716,6599,0.008,0.013,0.046,0.129,0.804,14.96989611359007,0.3014823165112939,0.018593272743431546,0.01161904138231043,0.6461150584460233,0.19065237830176765,0.5050663657106406,0.4498638337545082,2.459749730543728,3.708,0.5289039617696932
Arizona,5,Coconino,143476,04005,77608,1855,2777,20542,48222.143094,-111.77083726893751,35.83920933713397,16573.0,25308.0,44929.0,57616.0,82119,3407,5108,17604,19355,7391,17349,11905,0.039,0.08,0.07,0.11,0.7020000000000001,2.9753136379758263,0.5409127658981293,0.012928991608352616,0.01935515347514567,0.14317377122306169,0.31314644958041765,0.36887088517438626,0.5632887444634869,3.4842119363362927,3.3580000000000005,0.3957164346601084
Arizona,6,Gila-Navajo,164942,04007-04017,79483,1201,1053,22958,38093.246943,-110.48142648192228,34.88332540630536,31837.0,22108.0,56807.0,40721.438760291494,108608,6027,11654,32101,32164,8411,11099,7152,0.08510505511028119,0.07721528779813511,0.049502588788786356,0.20351689684858923,0.5839876683925258,4.329953816927378,0.4818845412326757,0.007281347382716349,0.006384062276436566,0.13918832074304907,0.3444059123813219,0.5604414948861935,0.3891773901103737,2.802730922215675,3.122721829491579,0.5901751784224674
Arizona,7,Maricopa,4485414,04013,2446089,250899,194895,1408855,23825.949527,-112.49172496358442,33.34838405113694,590465.0,549040.0,1201934.0,61606.0,2811491,165555,188958,634810,685299,237799,571408,327662,0.023,0.025,0.059,0.158,0.7340000000000001,188.2575128817866,0.5453429716855568,0.055936642637669565,0.04345083865168299,0.31409698190624097,0.2679650083582028,0.4912624154071688,0.456797128627695,3.3038281111339143,3.5530000000000004,0.5181767521862564
Arizona,8,La Paz,21108,04012,11928,185,130,5982,11653.985203,-113.98100292794894,33.728542243738396,3381.0,1318.0,4931.0,33333.0,15910,1318,2288,5248,4185,899,1324,648,0.030999999999999996,0.064,0.162,0.173,0.57,1.8112259139102322,0.5650938032973281,0.008764449497820731,0.006158802349819974,0.2833996588971006,0.2336081106689407,0.685662137497465,0.2672885824376394,2.479132620993086,3.187,0.7195147903809321
Arizona,9,Apache,71887,04001,12935,356,303,4736,29001.320728,-109.48918259818164,35.395457511051724,5315.0,12196.0,18659.0,32963.0,44426,4410,4675,14708,12196,3248,3408,1781,0.055,0.063,0.030999999999999996,0.15,0.701,2.478749180915579,0.17993517604017417,0.004952216673390182,0.004214948460778722,0.06588117462128062,0.2595601430022118,0.28484913446594134,0.6536255962270218,2.507473101337055,3.3789999999999996,0.30352349951459084
Arizona,10,Cochise,125922,04003,68968,4847,2558,44988,15966.170808,-109.75175561905016,31.87902285152671,25036.0,15291.0,43147.0,48649.0,87467,4885,6330,20560,25538,10038,12527,7589,0.053,0.025,0.147,0.194,0.581,7.886800255005765,0.5477041343053637,0.03849208240021601,0.020314162735661757,0.35726878543860485,0.3426486237512111,0.5802489164947737,0.35439312119034927,3.114145906456149,3.2249999999999996,0.6208247576065663
Arkansas,0,Baxter-Boone-Calhoun-Carroll-Clay-Cleburne-Cleveland-Conway-Craighead-Crawford-Faulkner-Franklin-Fulton-Garland-Grant-Greene-Hot Spring-Independence-Izard-Johnson-Lawrence-Logan-Lonoke-Madison-Marion-Montgomery-Newton-Perry-Pike-Polk-Pope-Prairie-Randolph-Saline-Scott-Searcy-Sebastian-Sevier-Sharp-Stone-Van Buren-White-Yell,1510211,05005-05009-05013-05015-05021-05023-05025-05029-05031-05033-05045-05047-05049-05051-05053-05055-05059-05063-05065-05071-05075-05083-05085-05087-05089-05097-05101-05105-05109-05113-05115-05117-05121-05125-05127-05129-05131-05133-05135-05137-05141-05145-05149,1261394,87406,19083,97656,74882.156694,-92.6627500191199,35.33724142205499,397300.0,138193.0,562556.0,45575.52202573018,1011772,48975,90533,365861,233786,76698,126646,69273,0.08598218924375467,0.09487475458727292,0.1347738077659347,0.2463624831232192,0.43804229342787204,20.167835258422876,0.8352435520599439,0.05787668080817846,0.012635982654079463,0.06466381187794289,0.37250159083730683,0.70624080091582,0.24565198842426353,2.8457725653605754,2.8556789932002884,0.7419331345134297
Arkansas,1,Arkansas-Ashley-Bradley-Clark-Columbia-Cross-Dallas-Drew-Hempstead-Howard-Jackson-Jefferson-Lafayette-Lincoln-Little River-Miller-Mississippi-Monroe-Nevada-Ouachita-Poinsett-Union-Woodruff,476287,05001-05003-05011-05019-05027-05037-05039-05043-05057-05061-05067-05069-05073-05079-05081-05091-05093-05095-05099-05103-05111-05139-05147,290727,151966,2678,21263,43040.543990000006,-92.23795807982381,34.101333003643134,100802.0,67966.0,174433.0,39340.64209394756,330388,17877,35677,129311,73209,21487,34970,17857,0.08269673117259133,0.0868905155924894,0.1281997136180496,0.21883337777432516,0.48338072422719924,11.066007904329927,0.6104029713177139,0.31906392574225206,0.0056226602867598735,0.04464325081306019,0.3662350641524963,0.5778837719926849,0.38963957508040337,2.669182900105331,2.933312973060361,0.597281475161168
Arkansas,2,Pulaski,391911,05119,202287,147037,8755,24493,1965.5795,-92.31061781249143,34.76915989137545,61182.0,89377.0,157728.0,50093.0,266144,8968,16473,69644,62195,18138,55561,35165,0.028,0.027000000000000003,0.126,0.17500000000000002,0.644,199.38700011879448,0.5161554536616731,0.3751795688306784,0.022339255596296098,0.06249633207539467,0.40245872149544154,0.38789561777236764,0.5666527186041793,3.395503937717927,3.38,0.4063656108236638
Arkansas,3,Benton-Washington,518328,05007-05143,371146,13272,17359,88629,4634.968953,-94.23638511159058,36.14715474638043,101169.0,60190.0,172415.0,57444.310367180624,307001,18926,21965,85477,63120,17348,63693,36472,0.05931143793119415,0.03123124739547159,0.09130625781358523,0.17199792795295643,0.6466916701393711,111.82987529280221,0.7160446666975352,0.025605408158540538,0.033490376749857234,0.1709901838218271,0.3326368631445725,0.5867760925673521,0.34909955630310585,3.221383643701486,3.316604227438996,0.626980831561921
Arkansas,4,Chicot-Crittenden-Desha-Lee-Phillips-St. Francis,121067,05017-05035-05041-05077-05107-05123,48294,65528,713,4590,10245.62359,-90.89087426555025,34.3939683177825,17451.0,23003.0,41483.0,34720.679053747095,84002,5638,10997,30930,19054,5399,7850,4134,0.07251511972709325,0.02876063667225586,0.17114145886162208,0.26195020938818997,0.4654551611917368,11.816459870550448,0.3989030867205762,0.5412540163711003,0.005889300965581042,0.037912891208999974,0.34264498170434554,0.4206783501675385,0.5545163078851578,2.5674269660246183,3.018714827327017,0.4313788500519108
California,0,Calaveras-Tuolumne,100383,06009-06109,80097,1427,1433,12873,8393.908572,-120.14147534825807,38.08275539180007,26558.0,16318.0,45806.0,57251.20099020751,75725,1934,5334,21237,23812,8696,9672,5040,0.02492004622296604,0.032024834882400405,0.0904021796519331,0.2412671069802656,0.6113858322624349,11.959029472259541,0.7979139894205194,0.014215554426546328,0.014275325503322276,0.1282388452227967,0.4563123237998466,0.5797930402130725,0.35624154040955336,3.0720105645427536,3.382173844176803,0.6194141244519078
California,1,Yuba,78668,06115,42455,2841,5241,22925,1636.913845,-121.35345615543824,39.26206145275609,12313.0,7234.0,21058.0,52624.0,47201,3603,4875,10898,14749,5210,5531,2335,0.057,0.035,0.071,0.16699999999999998,0.669,48.058729688366704,0.5396730563888748,0.03611379468144608,0.06662175217369197,0.2914145522957238,0.26768190369654754,0.5847183968088138,0.34352740051286923,2.8266985868943455,3.354,0.629917634419604
California,2,Yolo,220500,06113,101321,5407,32112,70392,2628.144763,-121.90163215805894,38.683825581752394,13178.0,34460.0,50623.0,65923.0,126055,9026,8154,23271,24627,8553,26649,25775,0.006999999999999999,0.005,0.04,0.156,0.7909999999999998,83.89948799787632,0.4595056689342404,0.024521541950113378,0.1456326530612245,0.31923809523809527,0.2295827664399093,0.2603164569464473,0.6807182505975544,3.5752964975605885,3.716999999999999,0.2766279020949662
California,3,Tulare,466195,06107,128955,5737,15337,305824,12495.083015,-118.80202031475244,36.220265579016,50488.0,39099.0,94571.0,47518.0,269073,50901,30444,69974,58870,20391,25710,12783,0.025,0.039,0.115,0.136,0.685,37.31027632552308,0.2766117182723967,0.012306009287958901,0.032898250731989834,0.6560001716020121,0.20285717350035928,0.5338634465110869,0.41343540831756037,2.355546636043007,3.4170000000000003,0.5635639099422908
California,4,Ventura,846006,06111,378024,15115,62677,365835,4771.9683159999995,-119.09106132484173,34.44465745532402,118764.0,170489.0,307881.0,84017.0,566685,54147,34038,107135,130945,52862,117739,69819,0.024,0.011,0.033,0.15599999999999997,0.777,177.28659202606494,0.44683371039921704,0.017866303548674595,0.07408576298513249,0.4324260111630414,0.3639229509010574,0.3857464409950598,0.5537496630191535,3.282599680598569,3.653,0.4105886542231196
California,5,Siskiyou,43539,06093,32736,612,659,5744,16261.93326,-122.54097138866554,41.5917528215162,11212.0,7106.0,19836.0,44200.0,31792,1012,2169,8118,9692,3638,4730,2433,0.132,0.07400000000000001,0.08199999999999999,0.16699999999999998,0.546,2.6773569479032533,0.7518776269551437,0.014056363260525047,0.01513585521027125,0.13192769700728083,0.4555915386205471,0.5652349263964509,0.35823754789272033,3.1542840966280825,2.923,0.6120755540997925
California,6,Shasta,180080,06089,142556,1959,5425,18935,9778.230074,-122.03969952985149,40.763762482834714,47587.0,20471.0,72554.0,50905.0,126151,3000,8606,31314,40608,14628,18432,9563,0.09499999999999999,0.055999999999999994,0.071,0.23200000000000004,0.547,18.416420828430592,0.7916259440248778,0.010878498445135495,0.0301254997778765,0.10514771212794313,0.4028987116836961,0.6558838933759682,0.2821484687267415,3.1795863687168553,3.0820000000000003,0.6992124364512622
California,7,Tehama,65084,06103,43832,521,817,16776,7638.22875,-122.2372327060238,40.12557275240518,14981.0,6571.0,22875.0,42899.0,43334,3093,3673,13319,13211,3329,4820,1889,0.057,0.062,0.141,0.195,0.545,8.520823626812694,0.6734681334890296,0.008005039641079221,0.012553008419888144,0.25775920349087333,0.3514688709974802,0.6549071038251366,0.2872568306010929,2.739050168458947,3.109,0.6951095025983668
California,8,Trinity,12285,06105,10060,70,173,907,8234.265084999999,-123.11482270929363,40.64883152287688,2409.0,1876.0,4716.0,38497.0,9966,145,787,3325,2965,779,1482,483,0.081,0.07,0.05499999999999999,0.201,0.5920000000000001,1.4919364233705625,0.8188848188848189,0.005698005698005698,0.014082214082214082,0.07382987382987383,0.3838827838827839,0.5108142493638677,0.3977947413061917,2.985751555287979,3.1510000000000002,0.562193698949825
California,9,Stanislaus,550660,06099,222343,14861,30042,262068,3874.662824,-120.99738189604686,37.558660958103694,72960.0,73939.0,156141.0,57387.0,339918,39361,34303,97071,85468,26192,39083,18440,0.032,0.028,0.062,0.173,0.705,142.1181726030879,0.40377546943667597,0.0269876148621654,0.05455635056114481,0.4759161733192896,0.2835524643155486,0.46726996752934846,0.4735399414631647,2.6349649033002076,3.4909999999999997,0.4966677785417191
California,10,Solano,447643,06095,166389,61264,68450,122103,2128.327622,-121.93586488314304,38.26850569621038,49595.0,97159.0,156067.0,77609.0,299653,17045,18986,69822,84913,30391,54826,23670,0.043,0.046000000000000006,0.035,0.14800000000000002,0.728,210.32617129657308,0.37170021646714013,0.13685905956308933,0.15291203034561024,0.272768701844997,0.34864166311100586,0.31778018415167847,0.6225467267263419,3.1739478663654292,3.472,0.3379464954958638
California,11,San Luis Obispo,283111,06079,193943,4903,10259,64860,8548.611925,-120.40387954816092,35.388209712531626,52672.0,63001.0,124575.0,70699.0,187561,7742,9381,37163,48650,19702,40138,24785,0.025,0.024,0.037000000000000005,0.16899999999999998,0.745,33.117774263685504,0.6850422625754563,0.01731829565082247,0.03623667042255511,0.22909742115283405,0.4400217582502976,0.4228135661248244,0.5057274734095926,3.507472235699319,3.585,0.4553525887631513
California,12,Nevada,99755,06057,84530,526,1349,9732,2480.5873239999996,-120.76435714297371,39.30499218160335,14686.0,16199.0,33258.0,63240.0,75777,1491,2895,13945,21746,7946,17914,9840,0.003,0.054000000000000006,0.084,0.177,0.682,40.214266611321285,0.8473760713748685,0.0052729186506942005,0.013523131672597865,0.09755901959801513,0.33339682221442535,0.44157796620362016,0.48707077996271575,3.647769111999683,3.481,0.4755059090173223
California,13,Sacramento,1552058,06067,679726,151589,252671,366764,2500.490904,-121.34299756812094,38.45067071943609,163024.0,273768.0,467526.0,63902.0,1012283,65658,62194,225825,251910,98570,203352,104774,0.025,0.028,0.062000000000000006,0.16399999999999998,0.722,620.7013180960566,0.43795141676406424,0.09766967471576449,0.1627973954581594,0.23630817920464312,0.30122972208512827,0.348695045837023,0.5855674336828326,3.2691036004753613,3.532,0.3732302789428378
California,14,Mendocino,86749,06045,55820,708,1816,22379,9081.426659,-123.39113127817009,39.43811910049846,3571.0,6905.0,11435.0,49233.0,61799,3725,4376,15925,17621,4911,10087,5154,0.002,0.003,0.004,0.22200000000000003,0.7699999999999999,9.552353749840485,0.6434656307277318,0.008161477365733322,0.0209339588928979,0.25797415532167517,0.13181708146491602,0.31228683865325757,0.6038478355924792,3.0759721031084646,3.7569999999999997,0.3408743795341733
California,15,Sonoma,494336,06097,311002,8021,21090,134954,4081.491107,-122.88625288045628,38.52747526666988,37421.0,116027.0,164060.0,76753.0,357968,22149,20682,67183,88952,34129,78692,46181,0.022,0.012,0.022,0.149,0.795,121.11652017376306,0.6291307936302434,0.01622580592957017,0.04266328974624547,0.2730005502330399,0.33187953133091663,0.22809338047055955,0.7072229672071193,3.433172797568498,3.683,0.24386762942495177
California,16,Sierra,3005,06091,2467,12,17,381,2468.694587,-120.51674130367479,39.578430447558866,1048.0,601.0,1804.0,48125.0,2330,10,146,620,806,312,207,229,0.14,0.053,0.04700000000000001,0.14300000000000002,0.617,1.2172425118214918,0.8209650582362729,0.003993344425956739,0.005657237936772047,0.12678868552412645,0.6003327787021631,0.5809312638580931,0.33314855875831484,3.202145922746781,3.044,0.635536688902365
California,17,Monterey,434061,06053,127497,10919,24789,257721,8499.616962,-121.24133362853847,36.21861381821005,26378.0,64733.0,96676.0,66676.0,274528,53527,25289,56133,50049,22373,40485,26672,0.023,0.006,0.066,0.141,0.763,51.06830130588183,0.293730604684595,0.025155450501196837,0.05710948461160989,0.5937437364794349,0.22272445577925684,0.27284951797757456,0.6695870743514419,2.694264337335354,3.613,0.289514987213399
California,18,Sutter,96971,06101,43573,2108,15849,30907,1560.546527,-121.69351208147371,39.03480992297333,16780.0,11831.0,30429.0,56955.0,62221,7880,5817,14879,15827,6794,7345,3679,0.058,0.031,0.08,0.163,0.669,62.139127749313175,0.4493405244867022,0.02173845788947211,0.1634406162667189,0.318724154644172,0.3137948458817585,0.5514476321929738,0.38880673042163727,2.716623005094743,3.356,0.5864877145153962
California,19,Santa Cruz,273213,06087,155094,2718,12950,92922,1152.866293,-122.0066099557556,37.05579197082877,20158.0,85185.0,113509.0,78041.0,178865,16298,8025,28222,38820,15890,42317,29293,0.008,0.0,0.086,0.109,0.797,236.98585140263094,0.5676669850995377,0.009948282109562868,0.04739891586417923,0.3401082671761593,0.4154597328824031,0.1775894422468703,0.7504691257961924,3.532451849159981,3.6870000000000003,0.19135585658278195
California,20,Napa,137744,06055,71291,2859,11698,47660,1938.114186,-122.33283898635341,38.50735750867704,11946.0,26161.0,40393.0,84753.0,98220,9562,5108,17644,22545,9084,22549,11728,0.017,0.026,0.033,0.149,0.773,71.07114792048687,0.517561563480079,0.020755894993611336,0.08492565919386688,0.34600418167034497,0.29324689278661864,0.29574431213329044,0.6476617235659644,3.3341478313989006,3.6310000000000002,0.31348571128664027
California,21,Riverside,2470546,06065,841827,153649,161830,1236032,18664.901450999998,-115.99334380588756,33.74314859791757,309514.0,339145.0,683612.0,63948.0,1530229,139524,140771,411949,381521,122746,212065,121653,0.026,0.014,0.041,0.116,0.8029999999999999,132.3631955135577,0.3407453251224628,0.06219232509736714,0.06550373884963082,0.5003072195377054,0.2767048255729705,0.45276267824438426,0.49610744106305915,2.8691516106412833,3.6559999999999997,0.4771598019914932
California,22,Santa Barbara,446499,06083,195557,8047,24104,205535,7083.976828,-120.01884918803724,34.653294875674035,53740.0,100120.0,164224.0,71657.0,273815,33512,18530,49059,58863,21217,54801,37833,0.015,0.02,0.07499999999999998,0.153,0.737,63.02942695057613,0.4379785844985095,0.01802243678037353,0.053984443414206974,0.46032577900510413,0.3678037352827218,0.3272359703819174,0.6096551052221356,3.2105910925259757,3.577,0.3492785649291564
California,23,San Diego,3338330,06073,1500865,157113,398913,1140033,10900.649390999999,-116.73419351050386,33.03456148642573,386807.0,567243.0,1011651.0,74855.0,2223376,149313,136695,409272,498566,181508,521525,326497,0.017,0.023,0.034,0.126,0.8,306.25056180196526,0.4495855712287281,0.047063352035299086,0.11949477732878415,0.34149799450623514,0.30304104147882327,0.3823522143506011,0.5607101658575931,3.48280092975727,3.669,0.40543682196949843
California,24,San Francisco,881549,06075,354369,44339,311974,134309,121.375681,-122.43856719607278,37.75215113674499,34493.0,312443.0,365295.0,104552.0,689551,48708,30700,84630,95239,36270,236593,157411,0.017,0.011,0.035,0.12100000000000001,0.8170000000000001,7262.978816983939,0.40198446144230215,0.050296693660817494,0.3538929770211299,0.152355683007978,0.41437855411327107,0.09442505372370276,0.8553169356273697,3.9999767964951105,3.712,0.09942179537436299
California,25,Kern,900202,06029,295715,46976,42400,491545,21062.456129,-118.72777946094992,35.34329484379594,119164.0,86481.0,217725.0,52479.0,532100,72415,67169,147239,121060,38465,57030,28722,0.022,0.028,0.105,0.177,0.668,42.73964985311235,0.32849849256055863,0.05218384318186363,0.04710053965665484,0.5460385557908114,0.24186238199870697,0.547314272591572,0.3972028935583879,2.5111238489005827,3.441,0.5794646113447932
California,26,Modoc,8841,06049,6825,99,95,1291,10140.960152,-120.72448170142785,41.58965601985601,2413.0,798.0,3359.0,45149.0,6773,476,498,2185,1765,771,706,372,0.068,0.019,0.095,0.204,0.615,0.8718109397418723,0.7719714964370546,0.011197828299966068,0.010745390792896731,0.14602420540662822,0.37993439656147493,0.7183685620720452,0.23757070556713308,2.8065849697327625,3.2809999999999997,0.7514792899408284
California,27,Plumas,18807,06063,15627,191,179,1750,6612.400908,-120.83950347363005,40.00353138756449,5079.0,3224.0,8830.0,53270.0,14430,214,660,3638,4717,1811,1922,1468,0.063,0.067,0.053,0.146,0.6709999999999999,2.844201412114379,0.8309140213750199,0.010155793055777105,0.009517732759079066,0.09305045993513053,0.4695060349869729,0.57519818799547,0.365118912797282,3.309009009009009,3.295,0.6117066120679272
California,28,Placer,398329,06061,284920,6793,31567,57381,3644.325262,-120.72336985855188,39.06196458273138,78977.0,61969.0,150532.0,84357.0,265483,5604,8799,48289,70551,29895,68639,33706,0.012,0.022999999999999996,0.07200000000000001,0.201,0.693,109.30116588479198,0.7152881161050287,0.017053742007235227,0.0792485608630052,0.14405428678303614,0.3779087136512782,0.5246525655674541,0.41166662237929474,3.6990730103245784,3.542,0.5603351638216054
California,29,Marin,258826,06041,184116,6603,16548,42160,1347.9767880000002,-122.72107717301138,38.071250125431256,17531.0,86650.0,109941.0,110217.0,190541,7366,5517,20858,32405,12377,63261,48757,0.011,0.0,0.046,0.141,0.802,192.01072474253908,0.7113504825635756,0.025511347391683988,0.06393484425830481,0.1628893542379823,0.4247679908509964,0.15945825488216406,0.7881500077314196,4.213282180738004,3.723,0.16827444543630796
California,30,Del Norte,27812,06015,17236,917,802,5596,2606.1179829999996,-123.89740322728292,41.742281723321746,5134.0,3485.0,9361.0,45258.0,19437,865,2819,6131,5229,1611,1619,1163,0.01,0.135,0.112,0.196,0.547,10.67181155320703,0.6197324895728462,0.032971379260750756,0.0288364734646915,0.2012081116065008,0.33658133179922334,0.5484456788804615,0.3722892853327636,2.689972732417554,3.1350000000000002,0.5956607495069034
California,31,Colusa,21547,06011,7344,220,266,13018,2980.332864,-122.23317261550379,39.17881956608651,3551.0,2659.0,6594.0,56704.0,13634,2681,1493,3225,2814,1318,1571,532,0.027000000000000007,0.031,0.092,0.151,0.7,7.229729356834687,0.3408363113194412,0.010210238084188054,0.012345106047245556,0.6041676335452731,0.3060286814869819,0.5385198665453442,0.4032453745829542,2.3987091095789936,3.468,0.5718196457326892
California,32,Inyo,18039,06027,10970,184,271,4230,26368.50843,-117.41119779031513,36.511120838359204,4248.0,3155.0,7996.0,52874.0,13244,562,916,3883,3384,1047,2127,1325,0.033,0.011,0.008,0.057999999999999996,0.889,0.6841115055061914,0.6081268362991297,0.010200121957979933,0.015023005709850878,0.23449193414269084,0.4432618216087366,0.5312656328164082,0.39457228614307155,3.1415735427363334,3.757,0.5738214237471295
California,33,San Bernardino,2180085,06071,595018,176769,159918,1186808,51954.8956,-116.17746592589212,34.84060484705925,253962.0,312517.0,598783.0,60164.0,1331752,121695,151170,352296,326114,110449,175216,94812,0.027000000000000003,0.022,0.048,0.134,0.768,41.96110828100672,0.27293339479882667,0.08108353573369846,0.07335402060011421,0.5443861133854873,0.2746603916819757,0.4241302775796908,0.521920294998355,2.7939526278165903,3.592,0.44831670723892675
California,34,Santa Clara,1927852,06085,589546,45598,739819,482298,3343.896477,-121.69741510709044,37.23070005628906,137452.0,483472.0,659148.0,116178.0,1323801,89149,68538,191695,203285,91636,361683,317815,0.015,0.014,0.04,0.168,0.764,576.5286136278913,0.3058045949585342,0.02365223056541685,0.3837530059361403,0.2501737685257997,0.34190798878752104,0.20852979907395608,0.7334801895780614,3.8855024282350596,3.654,0.22136686615431195
California,35,Los Angeles,10039107,06037,2615947,798279,1485197,4881970,10510.671776000001,-118.22824673304926,34.30828642264736,620285.0,1893770.0,2652072.0,64251.0,6845489,862926,597792,1416482,1314543,476265,1416842,760639,0.021,0.013,0.049,0.131,0.7859999999999999,955.1346682638526,0.2605756667400796,0.07951693312961003,0.14794114655815502,0.4862952451846564,0.26417409436915057,0.23388693821283887,0.7140718653188903,3.057121120200471,3.6479999999999997,0.24672690136055098
California,36,Butte,219186,06007,155415,3526,10573,37731,4238.438186,-121.60051971743592,39.66727700661919,42193.0,38676.0,87847.0,48443.0,147890,5732,10091,33611,44001,15195,25926,13334,0.015,0.043,0.111,0.204,0.6259999999999999,51.71386024314192,0.7090553228764611,0.016086793864571642,0.04823756991778672,0.17214146888943638,0.4007874590530417,0.4803009778364657,0.4402654615410885,3.243829873554669,3.3809999999999993,0.5217450444546118
California,37,Mono,14444,06051,9500,105,361,3875,7896.838487000001,-118.88723312641045,37.93898906148164,2080.0,2696.0,5154.0,63018.0,10042,651,480,2290,2818,727,2336,740,0.011,0.026,0.012,0.07,0.88,1.829086415250625,0.6577125450013847,0.007269454444752146,0.024993076710052617,0.2682774854610911,0.3568263638881196,0.40357004268529295,0.5230888630190144,3.2405895239992035,3.7800000000000002,0.4355108877721943
California,38,Madera,157327,06039,52197,5016,3244,92483,5534.617472,-119.76655766724083,37.21512921551972,19221.0,13283.0,34263.0,52884.0,97015,16376,10902,24249,23760,7644,9696,4388,0.019,0.059,0.048,0.124,0.7509999999999999,28.42599344867605,0.331773948527589,0.031882639343532894,0.020619474088999345,0.5878393409904212,0.21778207173593853,0.5609841520007005,0.3876776697895689,2.4332732051744577,3.5309999999999997,0.5913426039872016
California,39,San Joaquin,762148,06077,232123,54281,120898,320334,3606.2631590000005,-121.26910086658995,37.934279505355406,68316.0,89791.0,166647.0,61145.0,458237,51380,45525,129211,104891,42744,57633,26853,0.054000000000000006,0.019,0.081,0.165,0.68,211.34009538320547,0.30456420537743323,0.07122107517175141,0.158627983016422,0.420304192886421,0.21865438208851823,0.40994437343606543,0.5388095795303846,2.7035769699958756,3.396,0.432087130867071
California,40,San Mateo,766573,06081,296547,17442,228628,183978,1161.960635,-122.32762112793361,37.42292377697937,53731.0,219580.0,287499.0,113776.0,547899,34862,24477,82174,94317,38439,157556,116074,0.016,0.012999999999999998,0.058,0.126,0.7859999999999999,659.7237263549811,0.38684769747956166,0.02275321463187459,0.298246872770108,0.24000062616345735,0.37504451630829677,0.18689108483855596,0.763759178292794,3.8506294043245197,3.651,0.19659289234608193
California,41,Glenn,28393,06021,14334,240,752,12079,3403.16029,-122.39383703301785,39.59876106254046,5788.0,3065.0,9379.0,47395.0,17924,2467,1959,5058,4416,1540,1947,537,0.028,0.026,0.146,0.206,0.594,8.343127440523821,0.5048427429295953,0.008452787658930018,0.026485401331314055,0.425421758884232,0.3303278977212693,0.6171233606994349,0.326793901268792,2.4793572863200177,3.312,0.6537896758161076
California,42,Kings,152940,06031,47938,9662,5787,84514,3600.883824,-119.8159973014743,36.07409056416317,17446.0,12902.0,32250.0,53865.0,92321,11849,12421,23540,23995,8078,8784,3654,0.075,0.016,0.049,0.094,0.7659999999999999,42.47290595176947,0.3134431803321564,0.06317510134693344,0.03783836798744606,0.5525957891983785,0.21086700666928207,0.5409612403100775,0.400062015503876,2.487429728880753,3.4599999999999995,0.5748649004876762
California,43,Contra Costa,1153526,06013,492393,100798,204045,300420,1857.233047,-121.92009694272112,37.919671192881815,105819.0,286658.0,415972.0,93712.0,777519,44759,37815,136610,169705,64293,203101,121236,0.018000000000000002,0.016,0.039,0.12100000000000001,0.8059999999999999,621.0992216961127,0.4268590391547308,0.08738251240110756,0.17688808054608218,0.26043626238160217,0.36060912367818326,0.2543897185387478,0.6891281143923149,3.627233546704325,3.681,0.26961834706237564
California,44,Lake,64386,06033,44367,1156,756,14171,3254.364315,-122.75362441856541,39.101242978607466,5752.0,6240.0,13045.0,42475.0,46394,2620,4252,13951,12892,5355,4759,2565,0.003,0.004,0.006999999999999999,0.136,0.8490000000000001,19.78450897560312,0.6890783710744571,0.017954213648929893,0.011741682974559686,0.22009443046625043,0.2026061566178983,0.44093522422384057,0.47834419317746263,2.8330172005000644,3.8220000000000005,0.47965310206804534
California,45,San Benito,62808,06069,20593,622,1945,38214,3596.5909950000005,-121.069947931771,36.603069630117176,6471.0,10050.0,17572.0,81977.0,38076,5303,2355,9440,9794,3698,5164,2322,0.018000000000000002,0.004,0.063,0.175,0.7390000000000001,17.463203374338647,0.3278722455738122,0.009903197044962425,0.030967392688829448,0.6084256782575468,0.2797732772895173,0.3682563168677441,0.5719326200773959,2.7618709948524005,3.611,0.39168331214817503
California,46,Merced,277680,06047,73546,8191,19728,169442,5013.300944,-120.72090348821156,37.18922368613829,18486.0,21856.0,42523.0,50129.0,158034,29236,19197,40839,35467,11244,14395,7656,0.026,0.036000000000000004,0.08900000000000001,0.146,0.703,55.38865571841083,0.2648588303082685,0.029497983290118122,0.0710458081244598,0.6102059925093632,0.1531367041198502,0.43472944053806173,0.5139806692848576,2.342299758279864,3.4639999999999995,0.458232115413217
California,47,Humboldt,135558,06023,100078,1686,3671,16354,9241.52743,-123.87604207623171,40.6992314097819,10883.0,19596.0,33636.0,45528.0,91946,2593,6285,21615,25314,8759,18017,9363,0.042,0.006,0.018000000000000002,0.069,0.865,14.668354449714597,0.7382670148571091,0.012437480635595096,0.027080659201227517,0.12064208678204164,0.24812995175496835,0.323552146509692,0.5825900820549411,3.3362625889108823,3.709,0.3570655205223269
California,48,Fresno,999101,06019,286049,46274,103430,537180,15431.404077000001,-119.64669419186986,36.75733668131954,113949.0,123660.0,250264.0,51261.0,596505,84595,62794,136851,138098,50760,82089,41318,0.021,0.022,0.059,0.156,0.741,64.74465933330896,0.28630638944411024,0.046315637758344755,0.10352306723744646,0.5376633593600647,0.25048918978161366,0.4553151871623565,0.4941182111690055,2.702714981433517,3.572,0.47956516798606114
California,49,Alpine,1129,06003,692,4,18,139,1912.2926300000001,-119.82234839539015,38.59677149744587,211.0,318.0,575.0,64688.0,784,25,62,225,205,32,149,86,0.025,0.085,0.08800000000000001,0.19,0.612,0.59039081272828,0.6129317980513729,0.00354295837023915,0.015943312666076175,0.12311780336581045,0.5093002657218778,0.36695652173913046,0.5530434782608695,3.2091836734693877,3.279,0.3988657844990548
California,50,Orange,3175692,06059,1265002,52738,674423,1081091,2053.294769,-117.76458764367399,33.701506423881824,472669.0,556544.0,1092116.0,85398.0,2151512,176790,143550,368858,436936,167740,553419,304219,0.023,0.021,0.046,0.156,0.754,1546.6322945665675,0.3983390076871435,0.01660677420858194,0.21237040619808217,0.34042690537999276,0.3438985896617178,0.4328010943892407,0.5096015441583128,3.4652109772104454,3.597,0.4592528465924935
California,51,Alameda,1671329,06001,512134,169954,529698,373055,1909.5980129999998,-121.89290095356836,37.64626936452535,91189.0,486351.0,613195.0,92574.0,1156404,72042,67192,203838,207018,74613,305740,225961,0.019,0.008,0.055,0.123,0.7950000000000002,875.2255650781304,0.30642321170756925,0.10168793816178621,0.3169322138250458,0.2232085962727865,0.3668906600675271,0.14871125824574563,0.7931424750691053,3.7001255616549233,3.6670000000000007,0.1578920940540915
California,52,Amador,39752,06005,30742,994,575,5753,1539.933577,-120.65362812731495,38.44479461125139,10239.0,5904.0,17186.0,61198.0,29520,727,2137,8461,8751,3447,3910,2087,0.045,0.013,0.099,0.188,0.655,25.814100422072944,0.7733447373717046,0.025005031193399075,0.0144646810223385,0.1447222781243711,0.4323304487824512,0.595775631327825,0.34353543581985335,3.0884823848238483,3.3950000000000005,0.6342687232856347
California,53,Imperial,181215,06025,18161,4386,2134,154088,10817.292933,-115.36434267545376,33.03959702506141,11295.0,28467.0,41751.0,45834.0,109338,18440,15488,26758,25980,6870,10794,5008,0.001,0.005,0.03,0.128,0.836,16.75234285716463,0.10021797312584499,0.0242032944292691,0.011776067102612918,0.8503048864608338,0.23039483486466353,0.2705324423367105,0.6818279801681397,2.3636978909436794,3.7929999999999997,0.2840651878678135
California,54,El Dorado,192843,06017,148903,1696,8974,25378,4423.290468,-120.52496579985414,38.77862239505031,47633.0,35243.0,89228.0,80582.0,134716,3134,6165,28621,36552,14847,29222,16175,0.028,0.042,0.07200000000000001,0.183,0.675,43.5971820967015,0.7721462536882334,0.00879471902013555,0.04653526443791063,0.13159928024351417,0.4626976348635937,0.5338346707311606,0.3949769130766127,3.5304715104367705,3.435,0.5747502292581689
California,55,Lassen,30573,06035,19796,2432,399,5910,11761.615592,-120.59352451301336,40.67311928487518,7574.0,2224.0,10422.0,56362.0,22390,854,2999,7444,6216,2180,1787,910,0.064,0.068,0.162,0.225,0.482,2.599387793356816,0.647499427599516,0.0795473129885847,0.013050731037189678,0.1933078206260426,0.3408890197232852,0.7267319132604106,0.2133947418921512,2.664135774899509,2.995,0.7730149010002041
California,56,Mariposa,17203,06043,13645,206,262,2073,3752.472149,-119.90733341485019,37.579785562445494,5185.0,3122.0,8877.0,51199.0,13659,435,881,3622,4182,1342,1997,1200,0.01,0.094,0.049,0.18600000000000005,0.6609999999999999,4.584444418750568,0.7931756089054235,0.011974655583328489,0.0152299017613207,0.12050223798174738,0.516014648607801,0.5840937253576659,0.3516953925875859,3.1645069185152646,3.394,0.624172384735765
Colorado,0,Alamosa-Bent-Conejos-Costilla-Crowley-Huerfano-Las Animas-Otero-Prowers-Pueblo-Rio Grande-Saguache,278331,08003-08011-08021-08023-08025-08055-08071-08089-08099-08101-08105-08109,144893,5159,2350,118983,55085.929344000004,-104.64151472879513,37.73143328923456,51674.0,45359.0,104878.0,41752.48057169341,185880,9031,13626,54654,49518,19891,25575,13585,0.0280577585680359,0.05672011382131348,0.0892801376778009,0.25384224538409306,0.5721567917335835,5.0526695893951725,0.5205780168216979,0.018535484728614493,0.008443184553642964,0.42748741606217056,0.3768103445178582,0.4927058105608421,0.4324929918572055,3.0150473423714224,3.2854342922635285,0.5325404759205631
Colorado,1,Adams-Boulder-Douglas-El Paso-Jefferson-Larimer-Weld,3179446,08001-08013-08035-08041-08059-08069-08123,2242858,83075,108168,647264,31612.898200000003,-104.7859944927252,40.04117471350718,677996.0,673962.0,1485267.0,75909.41293546108,2004239,59377,91967,410532,437565,176790,511514,316494,0.025775409300865623,0.04434161108570488,0.07639938372911508,0.2007997292610096,0.6528671944735026,100.5743282341636,0.7054241525095881,0.026128765829015497,0.03402102127225938,0.20357760440026343,0.46714647771970336,0.4564808886213724,0.45376487863798226,3.6868956247233986,3.411008344220974,0.5014919102516499
Colorado,2,Denver,727211,08031,399284,64632,28356,212984,397.024697,-104.86939183633997,39.76448886310282,43637.0,174611.0,232291.0,63793.0,496573,31604,32439,84265,83924,26464,145105,92772,0.02,0.018000000000000002,0.062,0.194,0.7070000000000001,1831.6517977217925,0.5490621016458772,0.0888765433966208,0.03899280951470756,0.29287785800819843,0.3194272363866883,0.18785488891089194,0.7516907671842645,3.706915196758583,3.5520000000000005,0.19994226751218797
Colorado,3,Archuleta-Chaffee-Clear Creek-Custer-Delta-Dolores-Fremont-Gilpin-Grand-Gunnison-Hinsdale-Jackson-La Plata-Mesa-Mineral-Moffat-Montezuma-Montrose-Ouray-Park-Pitkin-Rio Blanco-Routt-San Juan-San Miguel-Summit-Teller,604116,08007-08015-08019-08027-08029-08033-08043-08047-08049-08051-08053-08057-08067-08077-08079-08081-08083-08085-08091-08093-08097-08103-08107-08111-08113-08117-08119,493582,6027,5362,78498,109408.71867599997,-107.36100653115342,39.03053885792775,173879.0,113784.0,312237.0,57498.32619066537,424233,10131,21669,114325,100719,34242,95228,47919,0.050305522449330925,0.06343682670215653,0.0886138125790411,0.2373493087420297,0.5601764512113568,5.521644045471484,0.8170318283243615,0.009976560792960292,0.008875778823934475,0.1299386210595316,0.5168494130266372,0.5568814714463692,0.36441549207813295,3.4252356605921745,3.1934181829317554,0.6044538227022592
Colorado,4,Cheyenne-Elbert-Kiowa-Kit Carson-Lincoln-Logan-Morgan-Phillips-Sedgwick-Washington-Yuma,115681,08017-08039-08061-08063-08073-08075-08087-08095-08115-08121-08125,86346,2888,847,23286,50175.726106,-103.0514150021656,39.59756769040553,42155.0,10863.0,56291.0,60742.32366594341,77101,3718,4796,24506,17929,8423,12046,5683,0.05203380849059051,0.16007408303870124,0.13672124203628946,0.289766642750322,0.36187758577467355,2.305517208771731,0.7464147094164124,0.024965206040749994,0.00732185925087093,0.20129494039643503,0.4866054062464882,0.7488763745536586,0.19297933950365068,3.0559266416777993,2.75032683846094,0.7951073220415708
Colorado,5,Broomfield,70465,08014,53836,898,4738,8964,85.478796,-105.05636384576343,39.96009761621657,14272.0,19530.0,37342.0,89624.0,45458,709,751,6667,8234,3888,15880,9329,0.018000000000000002,0.005,0.042,0.201,0.7340000000000001,824.3564871924494,0.7640105016674945,0.012743915419002341,0.0672390548499255,0.12721209110906123,0.5299368480806074,0.3821969899844679,0.5230035884526806,4.173368823969378,3.628,0.4222235370688125
Colorado,6,Arapahoe,656590,08005,389920,69867,41712,129681,2066.632437,-104.3392940152455,39.65010606741428,109638.0,148365.0,281658.0,73925.0,430193,14330,18565,89231,90029,36678,116505,64855,0.013,0.026,0.065,0.193,0.703,317.71010086008823,0.5938561354878996,0.10640887007112505,0.06352822918411795,0.19750681551653237,0.4289708950791209,0.38925931448778306,0.5267558528428093,3.6855109218420568,3.5469999999999997,0.4249485471099173
Colorado,7,Eagle-Garfield-Lake,123315,08037-08045-08065,82379,948,1187,36839,12973.082909,-107.3796398895211,39.578922696682966,22488.0,25457.0,52114.0,76455.08947816567,82303,4558,5049,18537,14777,7557,22191,9634,0.03536662206544216,0.021877735879657786,0.03514592709727122,0.2917533146819122,0.6158564002757166,9.50545069857304,0.6680371406560435,0.007687629242184649,0.009625755179824029,0.29873900174350243,0.4226087661679439,0.43151552365966916,0.4884867789845339,3.4681724845995894,3.4308551352228034,0.46903743873188025
Colorado,8,Baca,3581,08009,3005,29,13,405,6617.400546,-102.56032233188782,37.319408831144074,1716.0,278.0,2107.0,37500.0,2612,147,251,714,642,281,426,151,0.113,0.053,0.194,0.206,0.435,0.5411490471382446,0.8391510751186819,0.00809829656520525,0.0036302708740575257,0.11309690030717677,0.5883831332030159,0.8144280968201234,0.13194114855244424,2.9728177641653906,2.799,0.8605817452357071
Connecticut,0,Middlesex-New London,427642,09007-09011,334613,23099,16322,40095,2679.210482,-72.25883576270043,41.47844422068782,93421.0,108257.0,212929.0,76455.21161158165,307013,7704,14464,87018,58173,27582,61430,50642,0.016643496195415792,0.01568222485162823,0.0618217480977079,0.13668222485162823,0.7697904649215934,159.61493241127144,0.7824605628072079,0.054014806777631756,0.03816743911963746,0.09375833056622128,0.49791414313841953,0.43874249162866497,0.5084182990574323,3.531931872591714,3.6285342552883026,0.4632185959797301
Connecticut,1,Hartford-New Haven,1746477,09003-09009,1061210,230023,88856,330891,3469.2322639999998,-72.82362384823115,41.624657252845246,306285.0,437390.0,775128.0,69779.45315970379,1218298,51524,72851,351436,204588,94940,245827,197132,0.018915342715649847,0.018595239444893923,0.05912698592652523,0.12265873240815656,0.7807036995047746,503.4188740036462,0.6076289581826729,0.13170685900816329,0.05087728037643782,0.18946198547132312,0.4438237663593623,0.3951411895841719,0.564280996170955,3.431979696264789,3.6276402065415123,0.41185329613070226
Connecticut,2,Tolland,150721,09013,126298,5205,7490,8861,1062.807467,-72.33756162412855,41.859010285893405,33989.0,38450.0,77069.0,84916.0,95870,1595,3620,26390,16596,8215,22565,16889,0.008,0.008,0.027000000000000003,0.147,0.81,141.8140205821493,0.8379588776613743,0.03453400654188866,0.04969446858765534,0.05879074581511535,0.511335513962885,0.4410203843309242,0.4989035799089128,3.6842286429540003,3.7430000000000003,0.46920857549110284
Connecticut,3,Windham,116782,09015,95740,2229,1626,14536,1328.478475,-71.98952737867594,41.830434179315034,25738.0,21776.0,50703.0,64774.0,80985,2855,6337,26705,17833,7701,12062,7492,0.022,0.041,0.08199999999999999,0.13699999999999998,0.718,87.90658049615746,0.8198181226558887,0.019086845575516775,0.01392337860286688,0.12447123700570294,0.43416793683958144,0.5076228231071139,0.4294814902471254,3.0784960177810707,3.4879999999999995,0.541692974702193
Connecticut,4,Fairfield,943332,09001,574568,105105,54250,193772,1618.651428,-73.38821780824892,41.26544513890211,155457.0,238723.0,410279.0,92969.0,641790,34004,30886,139001,94360,39621,169677,134241,0.027000000000000003,0.019,0.06,0.114,0.7800000000000001,582.7888473589263,0.6090835464078395,0.11141888539771788,0.057508915206947286,0.2054123044696883,0.4349253497178088,0.37890557401183095,0.5818552740939702,3.746214493837548,3.6010000000000004,0.3943807397635598
Connecticut,5,Litchfield,180333,09005,157694,3173,3811,12800,2384.116952,-73.24623094608556,41.791319489104595,53376.0,39836.0,97434.0,78314.0,134752,3386,6600,39969,24717,12810,27363,19907,0.017,0.051000000000000004,0.021,0.098,0.812,75.63932627076929,0.8744600267283303,0.017595226608551957,0.021133125939234637,0.07097979848391586,0.5403004441782702,0.5478169838044215,0.4088511197323316,3.4744270957017336,3.6350000000000002,0.5726301334592112
Delaware,0,Kent-Sussex,415011,10001-10005,285686,74312,7276,35191,3941.775794,-75.45903379525917,38.82503585025245,99596.0,72676.0,180067.0,59947.78710684777,279512,11571,23426,92170,56846,24880,41619,29000,0.014147964752741493,0.003178086845890832,0.06592883321164981,0.08034789680273535,0.8363972183869824,105.28528807541812,0.6883817537366479,0.17906031406396458,0.017532065415133576,0.08479534277404695,0.4338848849789524,0.5531052330521417,0.4036053246847007,3.0765011877844244,3.721668317225326,0.5781322559673076
Delaware,1,New Castle,558753,10003,314663,140346,31898,58200,1104.149852,-75.64054971710857,39.57992633474788,85507.0,162905.0,261468.0,70996.0,380467,11303,21182,116387,68340,26642,79175,57438,0.027000000000000003,0.013,0.041,0.133,0.7859999999999999,506.04815912251735,0.5631522336345398,0.2511771748876516,0.057087836664859073,0.1041605145744184,0.46794916537360876,0.3270266342343996,0.6230399131060015,3.432747123929276,3.638,0.34421445018759156
District of Columbia,0,District of Columbia,705749,11001,264400,313290,30541,79477,158.34039099999998,-77.01655991980583,38.904177733164474,11553.0,260223.0,280272.0,82604.0,486981,18986,26819,83572,62618,14637,118817,161532,0.011999999999999999,0.013,0.069,0.16399999999999998,0.743,4457.163428376276,0.37463744192340337,0.44391136225485267,0.0432745919583308,0.1126136912698424,0.397127023913601,0.04122067134783353,0.928465918821716,4.114415141453157,3.615,0.042509272341928646
Florida,0,Citrus-Hernando-Marion-Sumter,841576,12017-12053-12083-12119,646285,69316,12474,97433,8288.497931,-82.19217563268384,28.959265416360132,273838.0,139172.0,424602.0,45498.79267826079,617547,20322,52353,223050,138980,55082,81553,46207,0.06254705932678689,0.0590760014544141,0.09907223827675694,0.2005938655570026,0.5787108353850394,101.53540569183258,0.7679460916185823,0.08236451609836783,0.014822190746884416,0.11577445174292042,0.5045319733452475,0.6449286626063937,0.3277704768230013,2.9483229616531212,3.1738454162190934,0.6630299508486477
Florida,1,Bradford-Columbia-Dixie-Gilchrist-Lafayette-Levy-Putnam-Suwannee-Taylor-Union,340964,12007-12023-12029-12041-12067-12075-12107-12121-12123-12125,253596,50941,2398,26568,16863.963540999997,-82.82467299862545,29.83625533446239,106031.0,35894.0,145455.0,40483.02499384099,236987,13030,29694,94551,49280,20349,20015,10068,0.06463541312279301,0.07566761593599325,0.17519331073075164,0.22028847326990533,0.46399662720991075,20.21849722166688,0.7437618047653125,0.14940286951115073,0.0070330005513778585,0.07792024964512383,0.4265992890745064,0.7289608469973531,0.24677047884225362,2.5677146847717385,2.9429061660468556,0.7470917738242029
Florida,2,Brevard-Charlotte-Flagler-Indian River-Lake-Manatee-Pasco-Polk-Sarasota-Volusia,4101977,12009-12015-12035-12061-12069-12081-12101-12105-12115-12127,2910218,384230,85947,637011,22222.067363000002,-81.60782384947562,28.149691569065123,1093773.0,751240.0,1909844.0,51833.93890190023,2843135,99134,198196,905822,623206,283267,463471,270039,0.04712921305994646,0.053319957181622434,0.07999342048968096,0.17752653123116,0.6420635669093221,184.5902513476239,0.7094671666857225,0.09366946718618852,0.020952579695107994,0.155293654742579,0.4655911039969264,0.5727027966682096,0.39335149886587595,3.147973979427639,3.314140659491753,0.5928267172101226
Florida,3,Collier-Monroe,459130,12021-12087,287764,30197,6694,128737,7716.459445,-81.25819836374637,25.81334890509191,127182.0,79890.0,212939.0,65892.9324897088,334310,22295,20229,86116,60976,25524,71490,47680,0.03466485744778167,0.019443238298521112,0.05843143771916451,0.2034314377191645,0.6840290288153681,59.50008592314969,0.6267593056432819,0.06577004334284407,0.014579748655065014,0.2803933526452203,0.4637880338901836,0.597269640601299,0.37517786784008567,3.3532200652089377,3.482716542155816,0.6141921650440426
Florida,4,DeSoto-Glades-Hardee-Highlands-Okeechobee,227138,12027-12043-12049-12055-12093,138053,21870,2425,60359,10015.584201000001,-81.37343286144974,27.269674317281165,53829.0,26033.0,81914.0,37692.35246414074,159628,15157,17551,64106,29719,10873,14876,7346,0.03488703343341933,0.053056164094074966,0.11624674867261311,0.14793432186600217,0.6474080823111942,22.678457436094593,0.6077934999867922,0.09628507779411635,0.010676328927788394,0.26573712897005347,0.36063538465602407,0.6571404155577801,0.31780892155187146,2.4862054276192147,3.318984956282084,0.6740251934587163
Florida,5,Palm Beach,1496770,12099,801351,279405,42513,349584,5090.938139,-80.4653631370263,26.646765571442337,270762.0,371411.0,657235.0,59943.0,1054752,61613,62870,258521,202483,92804,234531,141930,0.03,0.02,0.05,0.116,0.7839999999999999,294.00671529157626,0.535386866385617,0.18667196696887298,0.02840316147437482,0.23355893022976143,0.4391022000708192,0.41197136488470637,0.5651114137256841,3.396828828008859,3.6039999999999996,0.4216340456543642
Florida,6,Okaloosa-Santa Rosa,395051,12091-12113,305011,31950,10109,31390,5031.343638,-86.81788523793684,30.692512728162882,136914.0,42109.0,188089.0,64004.73146505135,255990,6144,15089,66131,61840,31390,48274,27122,0.07047158215015276,0.07600167573300663,0.15586454407152495,0.23566052231230902,0.4615351207818737,78.51799209585215,0.7720800605491442,0.08087563377892981,0.025589101154028213,0.07945809528390005,0.47611321069937806,0.7279213563791609,0.22387805772799046,3.3694011484823627,2.940852813940478,0.7647844131759606
Florida,7,Bay-Walton,248776,12005-12131,196086,22675,4936,16432,4652.3256519999995,-85.9378917798287,30.48302942207706,87705.0,28550.0,120710.0,52411.38285043573,176013,4928,12996,53443,44543,17250,28205,14648,0.07303902707656687,0.09441065456474902,0.08076386789722481,0.21450515323021516,0.5372812972312441,53.47347082056758,0.7882030420940926,0.09114625205003699,0.01984114223236968,0.06605138759365856,0.48521561565424315,0.7265760914588684,0.2365172728025847,3.1328595046956758,3.0485790389748204,0.7544191647671068
Florida,8,Wakulla,33739,12129,26705,4593,219,1324,1570.616088,-84.39895154842543,30.165489528268893,10507.0,4348.0,15344.0,62778.0,22983,588,2185,8253,5851,1881,2813,1412,0.032,0.092,0.172,0.275,0.429,21.481379350292254,0.7915172352470434,0.1361332582471324,0.006491004475532766,0.03924241975162275,0.45478526334509023,0.6847627737226277,0.28336809176225236,2.884958447548188,2.9770000000000003,0.7073039380679905
Florida,9,Calhoun-Franklin-Gulf-Holmes-Jackson-Liberty-Washington,139727,12013-12037-12045-12059-12063-12077-12133,104786,23524,808,6300,11611.355924,-85.22865653364241,30.40367047026605,46965.0,14836.0,63291.0,39328.93541692014,104503,5858,14432,40990,22779,6705,8794,4945,0.08143137689923924,0.09007452389301995,0.12399231358291526,0.1892531507868916,0.5158221531987376,12.033650584355303,0.7499337994804154,0.16835686731984512,0.005782704845878034,0.0450879214468213,0.4529618470302805,0.7420486325069915,0.23440931570049453,2.5378123116082794,2.969107216214476,0.7599391595605249
Florida,10,Baker-Nassau,117835,12003-12089,100222,9194,1014,4995,3195.8136219999997,-82.03143997152955,30.477679506862433,44515.0,12961.0,59171.0,65174.558620104384,77579,2432,5537,27263,16366,6856,12015,7110,0.08925633300801969,0.07148733398396064,0.15518033691178343,0.22101688802138586,0.4630591080748504,36.87167461482208,0.8505282810709891,0.0780243560911444,0.008605253108159714,0.042389782322739426,0.5021513132770399,0.7523110983420933,0.21904311233543458,3.084855437682878,2.8971351041710864,0.77449718143225
Florida,11,Orange,1393452,12095,548552,282303,76169,455295,2337.5660329999996,-81.31946046990755,28.511885034037217,195091.0,329579.0,545800.0,54335.0,879992,40280,61025,216036,167516,97567,196676,100892,0.02,0.02,0.07200000000000001,0.16399999999999998,0.7240000000000001,596.1123580375024,0.3936640802840715,0.20259255431834036,0.05466209097981129,0.3267389188863341,0.3916891288684504,0.3574404543788934,0.6038457310370099,3.3803091391739923,3.5520000000000005,0.3718356300150571
Florida,12,Martin,161000,12085,125144,8307,2289,22844,1408.3970259999999,-80.43109783973992,27.07720709764028,53182.0,30158.0,85741.0,57959.0,121310,5031,6434,30512,27105,12147,25129,14952,0.027000000000000007,0.018000000000000002,0.066,0.16899999999999998,0.7190000000000001,114.31435669617781,0.7772919254658385,0.05159627329192547,0.014217391304347826,0.14188819875776398,0.5325527950310559,0.6202633512555253,0.35173370966048917,3.4021762426840327,3.5330000000000004,0.6381329493640508
Florida,13,St. Lucie,328297,12111,183442,66494,6224,65310,1480.655751,-80.47106649338133,27.377639081490845,70248.0,66812.0,140731.0,49373.0,220556,12379,18230,74301,47647,23169,29173,15657,0.077,0.022,0.08,0.173,0.648,221.72405691078154,0.5587684322427559,0.20254221025473884,0.018958443117055593,0.19893571979031183,0.42866977157878383,0.4991650737932652,0.47474969978185333,2.9119860715645913,3.293,0.512534656354881
Florida,14,Osceola,375751,12097,113104,36400,10011,209797,3438.7559229999997,-81.15036819486316,28.062671058102037,50252.0,85287.0,139981.0,50063.0,222545,11247,18216,71032,52074,24246,31888,13842,0.024999999999999998,0.022,0.058,0.17600000000000002,0.72,109.26945919214634,0.3010078482825062,0.09687266301353822,0.026642643665618988,0.558340496765145,0.3725366000356619,0.3589915774283653,0.6092755445381873,2.947619582556337,3.546,0.37075675635794864
Florida,15,St. Johns,264672,12109,216843,13834,8411,19759,1555.841585,-81.43589966875575,29.900965059941594,88633.0,43037.0,136392.0,77323.0,166672,2854,6170,35717,33817,15258,45921,26935,0.047,0.071,0.097,0.223,0.561,170.11500563535844,0.8192895357272397,0.052268468141699914,0.03177895659533309,0.0746546669084754,0.5153246282190788,0.6498401665786849,0.3155390345474808,3.7876907938945954,3.1780000000000004,0.6731449836712995
Florida,16,Seminole,471826,12117,277730,54202,22711,105946,801.344504,-81.24475191862537,28.71570166218842,109265.0,105611.0,224377.0,63760.0,318981,6266,11941,69293,63852,45621,81835,40173,0.037000000000000005,0.039,0.066,0.14100000000000001,0.7170000000000001,588.7929568928571,0.5886280111736106,0.11487709452213316,0.048134269836761855,0.22454464145680822,0.47555030880027804,0.4869705896771951,0.4706854980679838,3.682915283355435,3.4620000000000006,0.5085025782311658
Florida,17,Duval,957755,12031,498343,283907,46542,100736,1975.993782,-81.66976467832562,30.332258745367113,210061.0,203627.0,428734.0,53473.0,628707,19370,46354,175335,140904,63464,122437,60843,0.049,0.041999999999999996,0.086,0.194,0.629,484.69535113142376,0.5203240912341883,0.2964296714713053,0.04859489117780643,0.10517929950770291,0.447644752572422,0.4899564765099106,0.4749495024887226,3.2619884938453048,3.3120000000000003,0.5077763918702017
Florida,18,Gadsden,45660,12039,14840,25024,261,4994,1337.1944349999999,-84.6191582538033,30.57796288810594,6721.0,14994.0,22079.0,40922.0,32128,2118,4520,11756,6371,2001,3441,1921,0.06,0.033,0.10399999999999998,0.227,0.575,34.14611877292176,0.3250109505037232,0.5480508103372755,0.005716162943495401,0.10937363118703461,0.48355234340779674,0.30440690248652563,0.6791068436070474,2.6108067729083664,3.222,0.30950955560672344
Florida,19,Hamilton-Madison,32921,12047-12079,17992,11592,184,2461,3134.691052,-83.25154256652691,30.466372305907132,8288.0,5425.0,13954.0,35103.17004343732,23583,1443,3572,9588,4200,1983,1858,939,0.13638953859238784,0.07886434190941952,0.18612873242003583,0.24778433218918017,0.350956532304608,10.502151393514744,0.5465204580662799,0.3521156708483946,0.005589137632514201,0.07475471583487743,0.4238631876309954,0.593951555109646,0.38877741149491185,2.4680490183606834,2.5983009325354636,0.6043899948953547
Florida,20,Hendry,42022,12051,13166,4417,336,23259,2994.619283,-81.16469006379275,26.55386944879669,6192.0,4610.0,11106.0,40728.0,25285,4905,3759,8806,4079,1657,1175,904,0.046,0.042,0.112,0.15,0.65,14.032501640042367,0.31331207462757604,0.10511160820522583,0.007995811717671697,0.553495787920613,0.2642901337394698,0.5575364667747164,0.4150909418332433,2.038164919912992,3.316,0.5732271801518237
Florida,21,Leon,293582,12073,164198,92148,10483,19613,1727.086019,-84.27491122059152,30.45955782344016,53777.0,91936.0,151925.0,51201.0,170031,3594,7225,32510,32708,16269,43915,33810,0.051,0.022,0.071,0.156,0.7,169.9869009245914,0.5592917821937312,0.3138748288382803,0.03570723000728927,0.06680586684469757,0.5174874481405536,0.35397070923152874,0.6051406944215896,3.86917679717228,3.4319999999999995,0.3690610995587216
Florida,22,Escambia,318316,12033,203840,72465,10301,18894,1701.544502,-87.3729414687113,30.67635073281966,88370.0,57114.0,151609.0,49286.0,208585,5065,14042,56941,48670,28703,36293,18871,0.019,0.052000000000000005,0.095,0.31,0.524,187.07474275627263,0.6403699468452733,0.22765113911961699,0.03236092436446801,0.05935611153696327,0.4762845725631134,0.5828809635311888,0.3767190602141034,3.2765395402353956,3.268,0.607420747298672
Florida,23,Hillsborough,1471968,12057,701596,235544,63405,436896,2646.574869,-82.32013197197212,27.92765637861489,265928.0,306422.0,595072.0,56137.0,935758,44264,64305,254006,179425,88177,194532,111049,0.023000000000000003,0.031,0.069,0.155,0.722,556.1784845921168,0.47663807908867584,0.16001978303876171,0.04307498532576795,0.29681080023478773,0.40426965803604425,0.44688373843837387,0.5149326468057647,3.3152310747009377,3.522,0.4646247925220582
Florida,24,Broward,1952778,12011,680536,555237,72644,606982,3116.026236,-80.48724950449204,26.15184937355238,258521.0,546956.0,822837.0,57333.0,1344708,65021,85104,368264,264965,131894,269898,159562,0.026,0.023,0.043,0.117,0.7909999999999999,626.6885616812887,0.3484963472550387,0.2843318595354925,0.03720033716070132,0.3108300073024174,0.4213674058187874,0.314182517315094,0.6647197440076225,3.30998625723949,3.6239999999999997,0.3209539192304684
Florida,25,Alachua,269043,12001,163036,53858,16261,28222,2266.3249539999997,-82.35696169863702,29.676546454463786,46584.0,75370.0,127827.0,49078.0,159261,4556,7556,34631,27996,16798,34587,33137,0.001,0.024,0.053,0.17,0.7509999999999999,118.7133378755534,0.605984916909193,0.20018361377177626,0.060440152689347056,0.104897730102623,0.47511736042193997,0.36443004998943884,0.589625040093251,3.765862326621081,3.6439999999999997,0.38198009085392853
Florida,26,Lee,770577,12071,510000,62344,12870,173497,2025.4134179999999,-81.88399312750133,26.584103483785395,191141.0,124725.0,325797.0,54691.0,537841,27692,36833,165834,109194,48774,93362,56152,0.052,0.049999999999999996,0.073,0.17600000000000005,0.648,380.4541794538462,0.6618417108218906,0.08090560709701951,0.016701770231917122,0.22515206137738344,0.42279616443262646,0.586687415783448,0.3828304128030645,3.151304939563923,3.3160000000000003,0.6051331893904377
Florida,27,Miami-Dade,2716940,12086,350675,417130,40914,1886364,4917.746437,-80.55170586866389,25.611236200121105,333666.0,623006.0,978670.0,48982.0,1922868,191214,164661,533542,299619,179835,350986,203011,0.032,0.023,0.06,0.128,0.7559999999999999,552.4766343295711,0.1290698359183493,0.15352933815248038,0.015058852974301972,0.6942972608890885,0.3602103837405316,0.34093821206331043,0.6365843440587736,3.0282567498132997,3.5509999999999997,0.3487778465346535
Florida,28,Pinellas,974996,12103,717761,102032,33899,99408,709.00665,-82.72239666116022,27.931303492390114,238746.0,233327.0,491520.0,51454.0,732552,20625,44494,207182,161031,72410,147743,79067,0.025,0.019,0.07400000000000001,0.133,0.75,1375.1577647402883,0.7361681483821472,0.10464863445593622,0.03476834776758059,0.10195734136345175,0.5041251451288006,0.48572998046875,0.47470499674479166,3.337248413764484,3.566,0.5057395784126607
Florida,29,Jefferson,14246,12065,8601,4700,100,595,1549.012956,-83.89442754711673,30.436671141597575,3930.0,3537.0,7641.0,48173.0,10910,583,1373,3632,2040,878,1460,944,0.019,0.017,0.099,0.183,0.682,9.19682430338562,0.6037484206092938,0.32991716973185453,0.007019514249613927,0.041766109785202864,0.5363610838130002,0.514330585001963,0.4628975265017668,2.8627864344637945,3.492,0.5263157894736842
Florida,30,Clay,219252,12019,157209,25430,6538,22855,1566.375291,-81.85609863643695,29.983187501175184,74898.0,27768.0,106363.0,62653.0,141027,3816,8719,44514,34237,15798,23289,10654,0.055,0.067,0.14999999999999997,0.209,0.52,139.9741181182869,0.7170242460730119,0.11598525897141189,0.02981956835057377,0.10424078229617062,0.48511758159560686,0.7041734437727405,0.26106822861333356,3.1484680238535883,3.074,0.7295307112383846
Georgia,0,Calhoun-Clay-Dooly-Dougherty-Macon-Quitman-Randolph-Stewart-Sumter-Terrell,177069,13037-13061-13093-13095-13193-13239-13243-13259-13261-13273,53798,110065,1718,9080,8947.259362,-84.42936073207584,31.913119858878094,24900.0,40729.0,66486.0,35626.84093771355,120541,8074,16906,39365,26650,9085,11660,8801,0.04226381805962647,0.04542290858365948,0.0556607311274136,0.1784324133529867,0.6781911401769932,19.790305928990012,0.30382506254623903,0.6215938419486189,0.009702432385115407,0.05127944473623277,0.3754807447944022,0.37451493547513764,0.6125951328099148,2.6798516687268235,3.40480617160542,0.37940544576330587
Georgia,1,Banks-Bartow-Catoosa-Chattooga-Cherokee-Dade-Dawson-Fannin-Floyd-Franklin-Gilmer-Gordon-Habersham-Haralson-Jackson-Lumpkin-Madison-Murray-Pickens-Polk-Rabun-Stephens-Towns-Union-Walker-White,1264761,13011-13015-13047-13055-13057-13083-13085-13111-13115-13119-13123-13129-13137-13143-13157-13187-13195-13213-13227-13233-13241-13257-13281-13291-13295-13311,1037415,78175,16042,108421,20691.930647000005,-84.39085024105624,34.49343036491383,379427.0,92337.0,487276.0,55619.50339234053,826365,45952,88554,265507,178969,62955,117628,66800,0.11691656052012989,0.08266434527946387,0.131166621994195,0.19974931153000447,0.4695730790244164,61.12339257155639,0.8202458804469778,0.06181009692740368,0.012683819314479178,0.08572449656496366,0.3852712093431091,0.7786695835624985,0.1894963018905097,2.900939657415307,2.822537839955533,0.8042728991614452
Georgia,2,Barrow-Clarke-Hall-Oconee,456292,13013-13059-13139-13219,285076,62689,14122,86025,2221.093273,-83.65494109614573,34.104707893522765,98362.0,57500.0,162212.0,55469.53055718706,271078,21297,24983,71623,52805,18921,45551,35898,0.05833679968090609,0.06819662847474862,0.09939465956010624,0.2029148089381361,0.5713344481165569,205.43576694719025,0.6247665968283468,0.13738790073023416,0.030949479719127225,0.18853059006075057,0.35550042516634084,0.6063793060932606,0.35447439153700094,3.118921491231306,3.161068166875597,0.6310839075592511
Georgia,3,Appling-Atkinson-Bacon-Berrien-Brantley-Bryan-Camden-Candler-Charlton-Clinch-Coffee-Colquitt-Cook-Echols-Effingham-Evans-Glynn-Irwin-Jeff Davis-Lanier-Lee-Long-McIntosh-Pierce-Tattnall-Telfair-Tift-Toombs-Ware-Wayne-Worth,784594,13001-13003-13005-13019-13025-13029-13039-13043-13049-13065-13069-13071-13075-13101-13103-13109-13127-13155-13161-13173-13177-13183-13191-13229-13267-13271-13277-13279-13299-13305-13321,517619,174665,8372,67372,35926.91375500001,-82.48321947766017,31.44794439815789,195700.0,71240.0,272683.0,46578.083989936196,510752,28643,61630,185509,103591,42353,53647,35379,0.06834977070943699,0.0963001450431688,0.13938616660336428,0.20618904172094102,0.489587081981254,21.838613952494228,0.6597284710308771,0.22261832234251092,0.010670486901505747,0.08586861485048318,0.3475466292120511,0.7176831705680222,0.26125574384908484,2.7280206440699204,2.9519879313377366,0.733123548362928
Georgia,4,Burke-Hancock-Jefferson-McDuffie-Richmond-Taliaferro-Warren-Washington-Wilkes,306974,13033-13141-13163-13189-13245-13265-13301-13303-13317,115079,166527,4040,13814,10446.512291000001,-82.51743133053216,33.252785979990705,46309.0,71529.0,120197.0,39651.58354127711,203799,10734,26777,70297,43369,15616,22676,14330,0.082663375399871,0.06509922664460183,0.10783109644465004,0.18260470267840273,0.5613280440688788,29.385309799948043,0.37488191182315117,0.5424791676168014,0.013160723709499828,0.04500055379282936,0.39155433359177,0.38527583883125205,0.5950980473722306,2.744380492544124,3.0738877038446253,0.392988679373377
Georgia,5,Baldwin-Ben Hill-Bibb-Bleckley-Bulloch-Chattahoochee-Crisp-Dodge-Emanuel-Harris-Houston-Jenkins-Johnson-Laurens-Marion-Meriwether-Montgomery-Muscogee-Peach-Pulaski-Schley-Screven-Spalding-Talbot-Taylor-Treutlen-Troup-Turner-Twiggs-Webster-Wheeler-Wilcox-Wilkinson,1136994,13009-13017-13021-13023-13031-13053-13081-13091-13107-13145-13153-13165-13167-13175-13197-13199-13209-13215-13225-13235-13249-13251-13255-13263-13269-13283-13285-13287-13289-13307-13309-13315-13319,589183,443093,21138,58258,30397.571504999993,-83.38688178887725,32.50909193826852,228213.0,182097.0,420377.0,44326.576828901474,733787,32145,76276,244569,164767,58796,94623,62611,0.07413378610617119,0.06701935718218391,0.13012985380749592,0.21629006221668717,0.5123310474813412,37.40410643702178,0.5181935876530571,0.3897056624749119,0.01859112712995847,0.05123861691442523,0.3697266652242668,0.5428769889884556,0.43317545917117256,2.9213927202308025,3.025473441372602,0.5561965343277034
Georgia,6,Chatham-Liberty,350865,13051-13179,161593,142905,9449,27112,2459.4362730000003,-81.325535767694,31.90641670673905,49774.0,68529.0,122095.0,53343.54208883759,227718,6460,16743,58120,57819,18252,43359,26965,0.030097316631752958,0.05033065424023485,0.13034252490274037,0.16798046257107435,0.6222490416541975,142.66074053304,0.4605560543228877,0.40729340344576975,0.026930585837857866,0.07727188519801063,0.34798284240377353,0.4076661615954789,0.5612760555305295,3.328823369254956,3.3039532583757287,0.4207332020320702
Georgia,7,Carroll-Coweta-Douglas-Fayette-Heard-Paulding,709855,13045-13077-13097-13113-13149-13223,438730,184877,14326,55279,5031.623639,-84.88974093380777,33.536110743253566,180349.0,101967.0,291618.0,66660.67897387495,441327,15532,33334,131309,99532,33879,82520,45221,0.08895825062864952,0.07279645561417472,0.13243717378901326,0.20481719083474795,0.500970603855717,141.07871552592488,0.6180558001281952,0.26044332997584013,0.020181586380317106,0.07787365025251636,0.41081347599157575,0.6184426201400463,0.3496594860399564,3.2039508119829514,2.9560047911193132,0.6388196205670242
Georgia,8,Clayton,292256,13063,26584,205908,14249,39194,366.930141,-84.35593537237429,33.541899485803405,11740.0,75908.0,89236.0,45778.0,172122,10775,15474,56696,41528,14111,22636,10902,0.038,0.054000000000000006,0.125,0.159,0.624,796.4894876270195,0.0909613489543414,0.7045466987846272,0.048755200919741594,0.1341084528632432,0.305335048724406,0.1315612533058407,0.8506432381550048,2.838021868209758,3.277,0.13394487039065353
Georgia,9,Forsyth,244252,13117,168509,9792,37736,23606,581.585477,-84.12315585239324,34.22605934568905,69801.0,23427.0,97314.0,101743.0,142017,4763,5407,23577,24811,10053,48316,25090,0.035,0.048,0.083,0.193,0.6409999999999999,419.9760992312399,0.6898981379886346,0.04008974337978809,0.1544961760804415,0.0966460868283576,0.39841638963038173,0.7172760342807818,0.24073617362352795,3.9384439890998966,3.3569999999999993,0.7487128330544471
Georgia,10,Glascock,2971,13125,2600,249,3,55,372.299246,-82.61297635852695,33.228799324402324,1235.0,138.0,1390.0,41686.0,2062,160,307,869,455,85,157,29,0.156,0.066,0.107,0.13,0.541,7.980139718037464,0.8751262201279031,0.0838101649276338,0.0010097610232245036,0.018512285425782565,0.46785594076068665,0.8884892086330936,0.09928057553956834,2.2837051406401554,2.834,0.8994901675163874
Georgia,11,Butts-Columbia-Crawford-Elbert-Greene-Hart-Jasper-Jones-Lamar-Lincoln-Monroe-Morgan-Oglethorpe-Pike-Putnam-Upson-Walton,551836,13035-13073-13079-13105-13133-13147-13159-13169-13171-13181-13207-13211-13221-13231-13237-13293-13297,385841,116978,10460,26572,13777.855515,-83.47236675292984,33.4315347149535,164222.0,63965.0,234074.0,57502.36523713567,361651,13856,35929,124413,75496,30559,50515,30883,0.08087462035822238,0.07977221312128965,0.13466867148935555,0.19761346486999762,0.5073039381265448,40.05238691893773,0.6991950507034699,0.2119796461267478,0.01895490689262752,0.04815198718459832,0.4241731238991295,0.7015815511334023,0.27326828267983627,2.962391919281296,2.971165703216173,0.7196816645996486
Georgia,12,Cobb-DeKalb-Fulton-Gwinnett,3519625,13067-13089-13121-13135,1364007,1342506,286640,446275,4052.74647,-84.3252273330204,33.86720611629283,456968.0,845485.0,1353399.0,66630.9664813723,2260113,98119,123417,453675,413298,162423,618495,390686,0.03362504613417623,0.0418699313137053,0.08968292758461484,0.18931726419718012,0.6455050705685975,868.454275650754,0.38754327520687576,0.381434385765529,0.08144049437084917,0.12679617857016018,0.3845293177540221,0.3376447004911338,0.6247122984426617,3.697577952960759,3.371207861348865,0.35085181576609675
Georgia,13,Henry-Newton-Rockdale,437201,13151-13217-13247,169160,213649,10647,33304,1870.516389,-84.0105999738919,33.527907057625455,80011.0,95044.0,179413.0,62295.10556700465,268308,9388,20693,85498,60678,23115,43437,25499,0.09134399738335457,0.06139363816642689,0.10416857006274002,0.19492198096527685,0.5489162238878685,233.7327823327615,0.3869158579234723,0.48867454557514733,0.02435264329221571,0.07617548907710642,0.41036731388994996,0.4459598802762342,0.5297497951653448,3.1171713105833594,3.050161616739212,0.4570620662077633
Georgia,14,Baker-Brooks-Decatur-Early-Grady-Lowndes-Miller-Mitchell-Seminole-Thomas,277250,13007-13027-13087-13099-13131-13185-13201-13205-13253-13275,148372,103596,3686,16343,11585.544697000001,-84.21545539750781,31.01311847362102,60098.0,39480.0,101432.0,39737.44729666366,178215,9405,21772,59801,37315,14611,20863,14448,0.07835577637511269,0.09861652660054106,0.13615079170423805,0.20878242741208294,0.4784814643823264,23.930683213521416,0.5351559963931469,0.37365554553651936,0.013294860234445446,0.05894679891794409,0.3658503155996393,0.5924954649420301,0.38922627967505324,2.8211205566310356,2.9111912497745713,0.6035268834481512
Georgia,15,Whitfield,104628,13313,59792,3775,1519,38014,752.229662,-84.96093475784834,34.809874593178144,21514.0,7925.0,30362.0,46970.0,66692,9453,10956,19304,13158,3330,6864,3627,0.185,0.068,0.203,0.142,0.403,139.09050026267113,0.5714722636387966,0.03608020797492067,0.014518102228848874,0.3633253048897045,0.2901900064992163,0.7085830972926684,0.26101706079968384,2.375697235050681,2.512,0.7307992798668433
Hawaii,0,Hawaii-Kauai-Maui,441223,15001-15007-15009,132394,3019,108720,53582,15047.479055000002,-156.16536858027973,20.11380972732936,38519.0,91193.0,143142.0,69201.99621506585,307591,9630,14425,95094,68462,32678,58734,28568,0.017468055835711194,0.024126668374042152,0.033921359493952044,0.11970614405867328,0.8047777722376213,29.32205443764281,0.3000614201888841,0.006842345027344449,0.24640601237922774,0.12143972549028496,0.3244209844001786,0.26909642173506026,0.6370806611616436,3.2698908615661706,3.670198908488451,0.2969578759097077
Hawaii,1,Honolulu,974563,15003,174205,24761,407182,97281,1555.4535369999999,-157.9712181836087,21.458031657597036,90296.0,175634.0,285683.0,82906.0,680707,27765,28867,178520,139382,72496,153306,80371,0.011,0.012,0.027000000000000003,0.151,0.7979999999999999,626.5458766962835,0.17875191239560706,0.025407285111378124,0.41780982861036176,0.09982012450708677,0.29313959179652826,0.31607060973176565,0.6147863191019417,3.4417054621151246,3.7109999999999994,0.3395480013537397
Hawaii,2,Kalawao,86,15005,23,0,7,1,31.057603000000004,-156.9583591678346,21.17882514945581,0.5,0.5,0.5,61875.0,69,3,6,19,12,12,13,4,0.026,0.013,0.032,0.08,0.85,2.769048210191881,0.26744186046511625,0.0,0.08139534883720931,0.011627906976744186,0.005813953488372093,1.0,1.0,3.1449275362318843,3.717,0.5
Idaho,0,Cassia-Elmore-Gooding-Jerome-Lincoln-Minidoka-Owyhee-Power-Twin Falls,223919,16031-16039-16047-16053-16063-16067-16073-16077-16083,158758,1779,2719,54759,51591.485717,-115.02513862287564,42.70086315514825,54707.0,15558.0,79744.0,49342.65536644948,135697,10212,11810,40938,35330,13965,16045,7397,0.16355180221419352,0.19267490923057,0.09669957886557193,0.1673887700463114,0.3801772248000393,4.340231665904827,0.7089974499707483,0.007944837195593048,0.012142783774489883,0.24454825182320392,0.3561287787101586,0.686032804975923,0.19509931781701445,2.801410495442051,2.408949276300805,0.778581085889134
Idaho,1,Ada-Canyon,711436,16001-16027,566761,7482,14767,99992,4245.125202,-116.40952465999996,43.512827986957035,140503.0,92359.0,267594.0,58615.8527625816,428150,13164,21322,110127,108741,38415,92133,44248,0.11638461224902871,0.08349231835330233,0.11178466931670594,0.2088615673089357,0.47915375522183307,167.58893228044772,0.7966436896642847,0.010516757656345757,0.02075661057354421,0.1405495364305433,0.3761322170933155,0.525060352623751,0.34514600476841784,3.381086067966834,2.8502613798008536,0.6033745308380071
Idaho,2,Adams-Bannock-Bear Lake-Benewah-Bingham-Blaine-Boise-Bonner-Bonneville-Boundary-Butte-Camas-Caribou-Clearwater-Custer-Franklin-Fremont-Gem-Idaho-Jefferson-Kootenai-Latah-Lemhi-Lewis-Madison-Nez Perce-Oneida-Payette-Shoshone-Teton-Valley-Washington,850865,16003-16005-16007-16009-16011-16013-16015-16017-16019-16021-16023-16025-16029-16035-16037-16041-16043-16045-16049-16051-16055-16057-16059-16061-16065-16069-16071-16075-16079-16081-16085-16087,732325,4317,8286,74363,153646.652262,-114.52406346784521,44.905259162228255,211786.0,81716.0,340614.0,51009.12275860448,524827,14600,31351,150655,142943,51924,90407,42947,0.09446025162628618,0.14285177672133653,0.16128744042827003,0.23730534456112312,0.36415638438530207,5.537803703975896,0.8606829520546738,0.0050736603338955065,0.009738325116205274,0.08739694311083426,0.40031497358570395,0.6217771436288585,0.23990793097171578,3.1989646111956893,2.633968228802454,0.7215828171528644
Idaho,3,Clark,845,16033,433,6,6,376,4566.524478,-112.35057043742069,44.28496070832862,203.0,44.0,283.0,35341.0,592,197,35,140,99,29,63,29,0.119,0.228,0.196,0.239,0.218,0.18504225786392467,0.5124260355029586,0.007100591715976331,0.007100591715976331,0.44497041420118344,0.3349112426035503,0.7173144876325088,0.15547703180212014,2.0557432432432434,2.209,0.8218623481781376
Illinois,0,Adams-Bond-Calhoun-Christian-Clark-Clay-Clinton-Coles-Crawford-Cumberland-Douglas-Edgar-Edwards-Effingham-Fayette-Fulton-Greene-Hamilton-Hancock-Jasper-Jersey-Lawrence-Macoupin-Madison-Marion-Mason-Montgomery-Morgan-Moultrie-Pike-Richland-Schuyler-Scott-Shelby-Wabash-Washington-Wayne-White,1038319,17001-17005-17013-17021-17023-17025-17027-17029-17033-17035-17041-17045-17047-17049-17051-17057-17061-17065-17067-17079-17083-17101-17117-17119-17121-17125-17135-17137-17139-17149-17159-17169-17171-17173-17185-17189-17191-17193,945237,42621,7274,25930,52325.49982,-89.31396011729906,39.27769595219021,327794.0,140008.0,492513.0,53036.26390733484,738024,24015,48071,260052,173261,80896,99134,52595,0.08168542422897011,0.0718754997259994,0.1352578966579635,0.21700336505447748,0.49421540297345995,19.843460713644838,0.9103531766249101,0.04104807867331716,0.0070055541697686356,0.024973057412991575,0.47433688490723946,0.6655540056810684,0.284272699400828,3.0118017842238194,2.9702630000991985,0.7007109845618446
Illinois,1,Brown-Cass-Macon-Sangamon,317406,17009-17017-17115-17167,248520,44895,5413,10022,5517.457037,-89.72957833539812,39.85287515339261,81597.0,61034.0,151145.0,56822.52743489411,223507,4814,14889,68837,51329,18498,41559,23581,0.023341553089733652,0.04382935420250405,0.13399081932918724,0.24792297247058973,0.5506679331833676,57.52758886412331,0.7829719665034688,0.14144345097446173,0.017053867916800563,0.03157470243158605,0.4761882258054353,0.5398590757219888,0.40381091005326014,3.265325023377344,3.258251643006118,0.5720846099375311
Illinois,2,De Witt-Ford-Henderson-Henry-Iroquois-Livingston-Logan-Marshall-Menard-Mercer-Piatt-Putnam-Stark-Tazewell-Woodford,412296,17039-17053-17071-17073-17075-17105-17107-17123-17129-17131-17147-17155-17175-17179-17203,381095,7805,2873,14266,21206.776623,-89.19591555364481,40.728843508943925,127521.0,59918.0,199780.0,60371.89082115761,293970,6691,18249,104010,67363,30619,46202,20836,0.04957326774938393,0.07164996507363641,0.11718395764208236,0.210927222189883,0.5507930879756292,19.4417099462839,0.9243237867939539,0.01893057415061024,0.006968294623280362,0.034601354366765626,0.4845547858819877,0.6383071378516368,0.2999199119030934,3.0848726060482363,3.1419718988299667,0.6803333351116897
Illinois,3,Bureau-Carroll-Grundy-Jo Daviess-Kankakee-LaSalle-Lee-Ogle-Rock Island-Stephenson-Whiteside,664044,17011-17015-17063-17085-17091-17099-17103-17141-17161-17177-17195,532815,42978,7754,67801,18918.409772,-89.35510451514585,41.69268494306334,157924.0,123423.0,299447.0,56635.86878128558,466071,15773,31964,159107,117504,46108,62014,33601,0.04271834697700755,0.05235213931606942,0.0928877965917921,0.22769821578088198,0.5843812714217732,35.10041319555366,0.8023790592189675,0.06472161483275204,0.011676937070435092,0.1021031738860678,0.4509445157248616,0.5273854805691826,0.41216976626915613,3.0012551735679756,3.2587474655293924,0.5613139646059848
Illinois,4,Champaign-McLean,381206,17019-17113,275504,42048,31305,21979,5644.468785000001,-88.55105784969915,40.32964020428563,70316.0,85612.0,168191.0,58045.497995834274,226292,3354,6897,52682,44438,18057,57062,43802,0.038244269502578664,0.06475033708808361,0.08494925840621606,0.19604939324144952,0.6160067417616721,67.53620482640333,0.7227168512562762,0.11030256606664113,0.08212095297555652,0.057656490191654905,0.4412076410129956,0.41807231064682415,0.5090165347729665,3.8265824686687995,3.286824000671553,0.45095172130727
Illinois,5,Knox-McDonough-Warren,96225,17095-17109-17187,80973,5952,1582,5528,4786.875819,-90.4792213033641,40.755986905702436,21714.0,18200.0,42574.0,44746.060452065474,65241,1653,4911,22193,14807,6528,9089,6060,0.03807612366848532,0.04758234346583528,0.15480139256949857,0.23150971161340608,0.5285139412834503,20.101837532125877,0.8414964925954793,0.06185502727981294,0.01644063393089114,0.05744868797090153,0.44244219277734476,0.5100295955277869,0.4274909569220651,3.0906178630002605,3.165770028578852,0.5440196422307962
Illinois,6,Boone-McHenry,361318,17007-17111,284956,6115,9653,54924,2289.99013,-88.57024829420317,42.32420571562223,83378.0,68779.0,162749.0,82149.6438981728,241836,8359,11349,66415,55837,22049,51279,26548,0.02925904604807953,0.011110855257695437,0.06585180920961592,0.1860769737461184,0.7077013157384907,157.78146607120965,0.7886570832341594,0.01692414991780094,0.02671607835756868,0.15201014065172508,0.4504314758744375,0.5123103674984179,0.4226078194028842,3.3724052663788684,3.5318506578692452,0.5479734747661954
Illinois,7,Franklin-Gallatin-Hardin-Jefferson-Johnson-Massac-Perry-Pope-Randolph-Saline-Union-Williamson,274607,17055-17059-17069-17081-17087-17127-17145-17151-17157-17165-17181-17199,244826,14611,2100,7662,12072.214894,-88.96037443488602,37.79843258962202,91879.0,32591.0,129865.0,46850.30886685336,199954,7682,18337,66027,51831,21581,21991,12505,0.09269329623789635,0.1019367459678741,0.13035467049274055,0.24333471834294101,0.43188144511975296,22.74702715377293,0.8915504703084772,0.05320694665467377,0.007647292312286285,0.027901692236541677,0.47291219815955166,0.707496246101721,0.2509606129442113,2.88662892465267,2.8201760224611903,0.7381618060576846
Illinois,8,DeKalb-Winnebago,387469,17037-17201,270941,46129,10455,50402,2964.408279,-88.94502907699254,42.09222884062575,72973.0,72943.0,155632.0,55001.64693949709,255792,9688,18947,77807,62325,23861,39307,23857,0.024502633759087823,0.025126975319315865,0.07411020236457627,0.19245855281325733,0.6838016357437627,130.7070293740736,0.6992585213268674,0.11905210481354637,0.02698280378559317,0.13008008382606093,0.4016631007899987,0.4688817209828313,0.46868895856893183,3.114471914680678,3.4859295814632913,0.5001027988705831
Illinois,9,Kane-Kendall-Will,1352136,17089-17093-17197,819881,118794,67189,323598,4339.5297310000005,-88.2041495153209,41.62640409304744,235965.0,269011.0,535325.0,81696.38362413249,869906,50821,50839,215414,188245,70856,187919,105812,0.026159123046794106,0.023356541058000085,0.056773697320387895,0.14639703180745134,0.7472182095588018,311.58583621189155,0.6063598632090264,0.08785654697456469,0.04969100741345545,0.23932355916860434,0.39591061845849823,0.4407883061691496,0.5025190304954934,3.338628541474596,3.5649678693563374,0.46727963309147363
Illinois,10,Jackson,56750,17077,41993,8411,1974,2641,1512.739198,-89.38237720193517,37.78596458859789,10889.0,11619.0,24509.0,37802.0,35318,1183,1580,8353,8346,3129,5961,6766,0.066,0.078,0.151,0.209,0.496,37.51472829885644,0.7399647577092511,0.1482114537444934,0.034784140969163,0.0465374449339207,0.43187665198237885,0.4442857725733404,0.47407074952058426,3.574409649470525,2.991,0.48378354362893194
Illinois,11,Cook,5150233,17031,2162156,1184247,398201,1319283,2447.370818,-87.81657740878403,41.84146733760993,440213.0,1528582.0,2055215.0,62088.0,3587029,241902,235524,837569,675501,234559,811185,550789,0.023,0.021,0.07200000000000001,0.162,0.722,2104.3942185307205,0.4198171228369668,0.22994047065443446,0.07731708448918719,0.25615986694194226,0.39905281955204747,0.2141931622725603,0.743757709047472,3.4111962852823323,3.5389999999999997,0.22359514322212318
Illinois,12,Monroe,34637,17133,33329,135,201,570,997.908512,-90.17819262639534,38.27797612754456,12614.0,5522.0,19074.0,81268.0,23870,273,680,6965,5795,2404,4865,2888,0.003,0.04,0.112,0.174,0.67,34.70959470080159,0.9622369142824148,0.003897566186448018,0.005803042988711493,0.016456390565002744,0.5506827958541444,0.661319073083779,0.2895040369088812,3.488227901131127,3.466,0.6955227172474636
Illinois,13,Lake,696535,17097,421776,47585,57514,156272,1149.803084,-88.00365421558409,42.32249223944827,108608.0,168186.0,293574.0,86244.0,457008,22386,20752,96532,83142,28409,120072,85715,0.02,0.018000000000000002,0.046,0.146,0.769,605.786338280512,0.6055345388243233,0.06831673928804727,0.0825715864960124,0.22435627786112686,0.4214777434012648,0.3699510174606743,0.5728913323386948,3.7013093862689495,3.624,0.39237844750970036
Illinois,14,St. Clair,259686,17163,158986,78578,3927,11215,1703.5091280000001,-89.92854868863422,38.46995205241984,53479.0,60180.0,119201.0,53681.0,178139,4491,11905,50928,42187,19965,28471,20192,0.032,0.027000000000000003,0.037000000000000005,0.138,0.767,152.4418012980556,0.6122239935922614,0.30258851073989357,0.015122109008571891,0.0431867717166116,0.4590197392235238,0.44864556505398445,0.5048615363965068,3.2765929976029953,3.583,0.47052147212275314
Illinois,15,DuPage,922921,17043,609335,45847,116160,134510,848.808625,-88.08637808742624,41.8511639709529,164355.0,222499.0,412929.0,88711.0,634898,23752,23244,116273,115143,46924,186489,123073,0.01,0.01,0.056,0.16299999999999998,0.76,1087.3134094272427,0.660224439578252,0.049675974433348036,0.12586126006451256,0.14574378522105358,0.4474153259054675,0.39802242031923163,0.5388311307755086,3.874319969506913,3.651,0.4248502018849488
Illinois,16,Vermilion,75758,17183,58966,10257,677,3982,2326.5603109999997,-87.73379390795353,40.18412574789792,18582.0,9876.0,29799.0,45384.0,53310,1758,4595,21917,11574,5434,5427,2605,0.023,0.119,0.08800000000000001,0.266,0.504,32.56223345761356,0.7783468412576889,0.13539164180680588,0.008936349956440244,0.05256210565220835,0.3933445972702553,0.6235779724151818,0.3314205174670291,2.7696867379478523,3.109,0.6529622601728864
Illinois,17,Alexander-Pulaski,11096,17003-17153,7050,3407,40,241,1125.884411,-89.2382651220568,37.20148840197602,3079.0,2079.0,5293.0,34271.468457101655,8528,411,1024,3082,2200,806,691,314,0.11336562725306419,0.07334552992069213,0.16771295962509014,0.2442102559480894,0.4013656272530642,9.855363385078435,0.6353640951694304,0.3070475847152127,0.003604902667627974,0.021719538572458542,0.4770187454938717,0.5817116946911014,0.39278292083884375,2.6208958724202627,2.7468647260273973,0.5969367972082202
Illinois,18,Peoria,179179,17143,124312,33028,7232,9056,1602.352656,-89.76078834298983,40.78702153058453,35299.0,37436.0,77465.0,54770.0,123650,3490,8334,33372,28980,11939,23116,14419,0.039,0.036000000000000004,0.096,0.251,0.5770000000000001,111.82245015107335,0.6937866602671072,0.18432963684360332,0.0403618727641074,0.0505416371338159,0.43233303009839325,0.4556767572452075,0.48326340928161104,3.3309179134654268,3.289,0.48530968584587886
Indiana,0,Adams-Benton-Blackford-Brown-Carroll-Clark-Clay-Crawford-Daviess-Dearborn-Decatur-DeKalb-Dubois-Fayette-Floyd-Fountain-Franklin-Fulton-Gibson-Greene-Hancock-Harrison-Henry-Huntington-Jackson-Jasper-Jay-Jefferson-Jennings-Knox-Kosciusko-LaGrange-Lawrence-Marshall-Martin-Miami-Montgomery-Morgan-Newton-Noble-Ohio-Orange-Owen-Parke-Perry-Pike-Posey-Pulaski-Putnam-Randolph-Ripley-Rush-Scott-Shelby-Spencer-Starke-Steuben-Sullivan-Switzerland-Union-Vermillion-Vigo-Wabash-Warren-Warrick-Washington-Wayne-Wells-White-Whitley,2323423,18001-18007-18009-18013-18015-18019-18021-18025-18027-18029-18031-18033-18037-18041-18043-18045-18047-18049-18051-18055-18059-18061-18065-18069-18071-18073-18075-18077-18079-18083-18085-18087-18093-18099-18101-18103-18107-18109-18111-18113-18115-18117-18119-18121-18123-18125-18129-18131-18133-18135-18137-18139-18143-18145-18147-18149-18151-18153-18155-18161-18165-18167-18169-18171-18173-18175-18177-18179-18181-18183,2131156,48546,19489,85148,68968.05224000003,-86.28308988239282,39.69567924029021,677275.0,250981.0,973844.0,54349.57515011257,1573837,61487,129191,624313,320955,148774,187395,101722,0.09364215943459285,0.09725830079154764,0.13529754633572968,0.23438032420269575,0.4393974674435089,33.6883951994872,0.9172483874008306,0.020894172090058505,0.008388055037761096,0.036647653053275275,0.41914192981648196,0.6954655981861572,0.2577219760043703,2.8485065480097367,2.82858423584513,0.7296209235383343
Indiana,1,Cass-Clinton-Delaware-Grant-Howard-Madison-Tipton,477253,18017-18023-18035-18053-18067-18095-18159,404162,30841,4861,26464,6808.7355640000005,-85.95281896268621,40.39401262482584,121093.0,63103.0,193893.0,46837.79488237895,320628,10887,27891,122275,68223,28578,39448,23326,0.0581823498228403,0.098116315664857,0.1544919487148326,0.23110460070444816,0.45808109744726594,70.09421874501807,0.8468506222066703,0.06462190913414897,0.010185373376385271,0.055450672913528044,0.406268792443421,0.6245351817755154,0.3254526981376326,2.8962473645470763,2.9327384049969307,0.6574138417772373
Indiana,2,Elkhart-LaPorte-Porter-St. Joseph,758444,18039-18091-18127-18141,575053,67078,12757,84692,5017.820240999999,-86.49417262438787,41.555944536315366,155226.0,126240.0,296125.0,56018.23424142059,496080,21656,39714,169080,102518,40904,76811,45397,0.04267536957244042,0.07405769839302573,0.11073395267152221,0.23201587328794218,0.5405105347263609,151.15009378033238,0.7582010009967776,0.08844159885238725,0.016819962976831512,0.11166546244679897,0.3904375273586448,0.524190797804981,0.4263064584212748,3.0347544750846636,3.1536153625053402,0.5514911214853659
Indiana,3,Marion,964582,18097,521827,273538,36388,105062,1026.784675,-86.13826324760346,39.78163624227211,130228.0,212676.0,361070.0,46692.0,621033,30696,58190,173635,124345,45449,122806,65912,0.05099999999999999,0.053,0.116,0.232,0.5479999999999999,939.4199421607066,0.5409877024452042,0.2835819038713142,0.03772411262080362,0.10891971859313153,0.37432794723517543,0.36067244578613566,0.589015980280832,3.1718008543829392,3.173,0.37977976343233094
Indiana,4,Boone-Hamilton-Hendricks,576165,18011-18057-18063,481870,29104,29146,23928,3170.4935029999997,-86.34886051139968,39.96456901394538,155279.0,89990.0,260949.0,88171.51071307699,353755,4885,12298,69436,63629,26031,112843,64633,0.0631510070899829,0.055299068843126534,0.07886870601303446,0.24951211024619688,0.5528735136636206,181.72722935871604,0.8363402844671232,0.05051330781980856,0.05058620360487013,0.04152977011793497,0.45290671942933014,0.5950549724275624,0.3448566578143622,3.952436007971619,3.1730668662622685,0.6330967223742096
Indiana,5,Monroe,148431,18105,123137,5253,10732,5274,1021.806951,-86.5241435751992,39.16130003721653,20527.0,34183.0,57623.0,47075.0,83259,1768,4757,18205,14296,6271,19933,18029,0.037000000000000005,0.037000000000000005,0.094,0.24199999999999997,0.591,145.26325139473434,0.8295908536626446,0.03539018129635992,0.07230295558205496,0.03553166117589991,0.3882140523206069,0.35622928344584626,0.5932179858736962,3.807131961709845,3.3149999999999995,0.37519649058673005
Indiana,6,Bartholomew-Johnson,241946,18005-18081,206509,5611,13305,11957,1883.8469259999997,-85.98629700473936,39.331904660354205,66093.0,27159.0,98618.0,65364.5935828656,156223,3505,9574,49389,30014,13789,32142,17810,0.08504799004736595,0.09053728517933754,0.09480592776900632,0.22454951931422718,0.5047130062079969,128.43187875870973,0.8535334330801088,0.023191125292420622,0.05499160969803179,0.049420118538847514,0.4076033495077414,0.6701920541888905,0.27539597233770713,3.3357444166351944,2.9726497234920193,0.7087569167417321
Indiana,7,Allen,379299,18003,277144,43791,17111,29356,1702.451607,-85.06800636450059,41.09194312802701,83801.0,55222.0,145787.0,53402.0,239816,9967,15795,68899,52516,25112,44188,23339,0.07,0.14,0.099,0.228,0.464,222.79576020864832,0.7306742174379579,0.11545245307791478,0.04511216744573542,0.07739540573531699,0.38435904128405296,0.5748180564796587,0.37878548841803455,3.2214823030990427,2.878,0.6027851506585241
Indiana,8,Lake,485493,18089,261066,112996,7901,95254,1291.941587,-87.38277575358362,41.418742742489634,75565.0,116896.0,200247.0,54249.0,327083,14018,25013,114444,73668,27681,48285,23974,0.043,0.057,0.08800000000000001,0.219,0.5920000000000001,375.7855656054518,0.5377338087263874,0.23274485934915642,0.016274179030387668,0.1962005631389124,0.41246114774054415,0.37735896168232236,0.5837590575639086,2.9683535983221385,3.2580000000000005,0.39262499935051776
Indiana,9,Tippecanoe,195732,18157,146311,11045,16976,17063,1292.163442,-86.89413958820974,40.38872738687578,30711.0,27207.0,61916.0,51844.0,104357,2776,5862,26092,21782,8485,22061,17299,0.093,0.083,0.10199999999999998,0.20399999999999996,0.518,151.4761938296657,0.7475067950054156,0.05642919910898576,0.08673083604111745,0.08717532135777492,0.316330492714528,0.4960107242069901,0.4394179210543317,3.5592341673294556,2.971,0.5302496633171034
Indiana,10,Vanderburgh,181451,18163,150747,17572,2537,5155,605.20594,-87.58748859821655,38.02671298896936,40422.0,28296.0,71957.0,46943.0,123744,2995,9699,40163,26896,11436,21196,11359,0.07,0.039,0.115,0.23399999999999999,0.542,299.81695156528036,0.8307862728780773,0.09684157155375281,0.013981736116086437,0.028409873740017966,0.39656436172851073,0.5617521575385299,0.3932348485901302,3.1564439487975173,3.1390000000000002,0.5882301580371955
Iowa,0,Adair-Adams-Allamakee-Appanoose-Audubon-Benton-Black Hawk-Boone-Bremer-Buchanan-Butler-Calhoun-Carroll-Cass-Cedar-Cerro Gordo-Cherokee-Chickasaw-Clarke-Clay-Clayton-Clinton-Dallas-Davis-Decatur-Delaware-Des Moines-Dickinson-Dubuque-Emmet-Fayette-Floyd-Franklin-Fremont-Greene-Grundy-Guthrie-Hamilton-Hancock-Hardin-Harrison-Henry-Howard-Humboldt-Ida-Iowa-Jackson-Jasper-Jefferson-Jones-Keokuk-Kossuth-Lee-Louisa-Lucas-Lyon-Madison-Mahaska-Marion-Marshall-Mills-Mitchell-Monona-Monroe-Montgomery-Muscatine-O'Brien-Osceola-Page-Palo Alto-Plymouth-Pocahontas-Pottawattamie-Poweshiek-Ringgold-Sac-Scott-Shelby-Sioux-Story-Tama-Taylor-Union-Van Buren-Wapello-Warren-Washington-Wayne-Webster-Winnebago-Winneshiek-Worth-Wright,2147516,19001-19003-19005-19007-19009-19011-19013-19015-19017-19019-19023-19025-19027-19029-19031-19033-19035-19037-19039-19041-19043-19045-19049-19051-19053-19055-19057-19059-19061-19063-19065-19067-19069-19071-19073-19075-19077-19079-19081-19083-19085-19087-19089-19091-19093-19095-19097-19099-19101-19105-19107-19109-19111-19115-19117-19119-19121-19123-19125-19127-19129-19131-19133-19135-19137-19139-19141-19143-19145-19147-19149-19151-19155-19157-19159-19161-19163-19165-19167-19169-19171-19173-19175-19177-19179-19181-19183-19185-19187-19189-19191-19195-19197,1898786,58178,37621,111731,134134.83419399994,-93.46383176881882,42.06169865256724,602196.0,401758.0,1066185.0,57181.287981556365,1443342,42504,71500,487111,309752,172477,246112,113886,0.08758539866524859,0.10492872509448124,0.1596855795253679,0.23045116543951247,0.4172927223825108,16.01012900865137,0.884177812877762,0.027090834247567887,0.017518379374123406,0.05202801748624923,0.49647360019669234,0.5648137987309895,0.3768182820054681,3.1723333762891954,2.7848242699937975,0.5998242947386035
Iowa,1,Crawford-Woodbury,119927,19047-19193,84164,5014,3296,22771,4110.533881,-95.74715602644699,42.23111861697661,29235.0,18087.0,49795.0,55220.16777706438,76546,5186,5983,25085,16514,7303,11497,4978,0.10963395232099526,0.14816976160497639,0.13756100794650078,0.14653580928398108,0.4579592168569213,29.175528890379674,0.7017935911012533,0.04180876699992495,0.027483385726316843,0.18987383991928422,0.4152109199763189,0.5871071392710111,0.36322923988352246,2.903613513442897,2.6947360727776064,0.6177887663243312
Iowa,2,Johnson-Linn,377846,19103-19113,311037,24491,15527,16386,3444.892396,-91.5932604561049,41.8914105330331,69176.0,108423.0,190301.0,63573.18635634624,235243,4757,7286,54289,48424,25558,58941,35988,0.02899989413676471,0.06619984332241179,0.09659980521164709,0.2005999957654706,0.6070004657982352,109.68296148777588,0.8231845778438834,0.06481741238493989,0.04109346135727254,0.04336687433504655,0.5036469884556142,0.3635083367927651,0.5697447727547412,3.7153114014019546,3.2892013042350587,0.38950669767284724
Iowa,3,Buena Vista,19620,19021,11379,565,1917,5185,1488.981857,-95.15100161714642,42.735458752516166,4895.0,2851.0,8179.0,54556.0,12766,1707,1133,3762,2493,1165,1751,755,0.183,0.062,0.26,0.207,0.28800000000000003,13.176789164866232,0.5799694189602447,0.028797145769622834,0.09770642201834863,0.2642711518858308,0.41687054026503567,0.5984839222398827,0.34857562049150265,2.6696694344352188,2.3550000000000004,0.6319390653240382
Iowa,4,Polk,490161,19153,377330,34140,24243,42477,1482.025649,-93.57767461076286,41.68679483703469,93421.0,119671.0,228420.0,66044.0,313476,11328,15325,77890,63904,31920,77519,35590,0.044,0.08900000000000001,0.136,0.259,0.473,330.7371909053917,0.7698082874810521,0.06965058419580505,0.04945925930459584,0.08665928133817256,0.46601014768616844,0.408987829437002,0.5239077138604326,3.4823463359236433,3.0300000000000002,0.43840688528898314
Kansas,0,Johnson-Wyandotte,767830,20091-20209,544662,64233,40696,97089,1619.392531,-94.80826589190148,38.94169795637053,149427.0,155670.0,327220.0,76287.94971803654,497383,16109,21886,90496,95940,37287,147016,88649,0.02813819986194861,0.026971651276975372,0.07521545003451284,0.21408929841240898,0.6563699503796413,474.14693182872287,0.7093523305940117,0.08365523618509306,0.053001315395334904,0.12644595808968132,0.42616204107680083,0.4566560723672147,0.47573497952447896,3.833705615189904,3.4451502481017933,0.48976882761875734
