state,county,total_pop,fips,white,black,asian,hispanic,area,lon,lat,votes_gop,votes_dem,total_votes,median_income,pop25,no_hs,some_hs,hs,some_college,associates,bachelors,graduate,never,rarely,sometimes,frequently,always,pop_density,per_white,per_black,per_asian,per_hispanic,per_total_votes,education,per_gop,mask,cluster
Alabama,Autauga,55869,01001,41215,11098,646,1671,594.436,-86.64119616803883,32.536152921436546,18110.0,5908.0,24661.0,58786.0,37166,956,3248,12119,7554,2998,5903,4388,0.053,0.07400000000000001,0.134,0.295,0.444,93.98656878116398,0.7377078522973384,0.19864325475666286,0.011562762891764665,0.029909252000214787,0.44140757844242784,3.174487434752193,0.754017819968357,3.003,5
Alabama,Baldwin,223234,01003,185747,19215,2346,10534,1589.7839999999999,-87.72395376445844,30.725862301721378,72780.0,18409.0,94090.0,55962.0,146989,3978,10332,40579,32266,13759,30431,15644,0.083,0.059,0.098,0.32299999999999995,0.436,140.4178177664387,0.8320730713063422,0.08607559780320202,0.010509151831710223,0.04718815234238512,0.42148597435874463,3.3291130628822563,0.7981225805744114,2.968,3
Alabama,Barbour,24686,01005,11235,11807,116,1117,884.8760000000001,-85.38924517387589,31.867888656342398,5431.0,4848.0,10390.0,34186.0,18173,1490,3411,6486,3287,1279,1417,803,0.067,0.121,0.12,0.201,0.491,27.897694140195924,0.4551162602284696,0.4782872883415701,0.004699019687272138,0.045248318885198084,0.4208863323341165,2.380619600506245,0.5283587897655414,2.928,1
Alabama,Bibb,22394,01007,16663,4719,46,623,622.582,-87.12496297519769,32.996456285921184,6733.0,1874.0,8748.0,45340.0,15780,903,1747,7471,2938,908,1197,616,0.02,0.034,0.096,0.278,0.5720000000000001,35.96955902997517,0.7440832365812271,0.2107260873448245,0.002054121639724926,0.027819951772796284,0.3906403500937751,2.459822560202789,0.7822702451492971,3.3480000000000003,5
Alabama,Blount,57826,01009,50176,872,163,5582,644.776,-86.56975624844863,33.985247659332146,22808.0,2150.0,25384.0,48695.0,39627,2967,4894,13489,8492,4775,3217,1793,0.053,0.114,0.18,0.194,0.459,89.68385920071468,0.8677065679798015,0.015079721924393871,0.002818801231280047,0.0965309722270259,0.4389720886798326,2.6065813712872536,0.9138552768651336,2.892,0
Alabama,Bullock,10101,01011,2121,6978,16,864,622.805,-85.71120899798353,32.09815194538011,1139.0,3530.0,4701.0,32152.0,7104,346,1414,2817,1205,377,526,419,0.031,0.04,0.14400000000000002,0.28600000000000003,0.5,16.218559581249348,0.20997920997920996,0.6908226908226909,0.0015840015840015839,0.08553608553608552,0.4653994653994654,2.4373592342342336,0.2439494538445063,3.1860000000000004,1
Alabama,Butler,19448,01013,9937,8680,270,289,776.829,-86.68058318622562,31.752936285017643,4891.0,3716.0,8685.0,39109.0,13888,587,1554,6091,2346,1075,1344,891,0.102,0.053,0.257,0.13699999999999998,0.451,25.03511068716539,0.5109522830111065,0.4463183874948581,0.013883175647881529,0.01486013986013986,0.4465754833401892,2.6742511520737327,0.5682583943301963,2.782,5
Alabama,Calhoun,113605,01015,81464,23855,987,4614,605.868,-85.8189278837142,33.776189735428126,32803.0,13197.0,47376.0,45197.0,79135,4012,8608,25653,20474,6169,8060,6159,0.152,0.108,0.13,0.16699999999999998,0.442,187.5078399915493,0.7170811143875709,0.2099819550195854,0.008687997887416928,0.040614409577043264,0.4170238985960125,2.821330637518165,0.7131086956521739,2.637,2
Alabama,Chambers,33254,01017,18331,13231,356,871,596.531,-85.38992379742452,32.91159373040564,7803.0,5763.0,13778.0,39872.0,23564,1352,3031,9060,4985,2018,2200,918,0.117,0.037000000000000005,0.15,0.136,0.56,55.74563601891604,0.5512419558549347,0.39787694713417937,0.010705479040115477,0.02619233776387803,0.4143260961087388,2.57536920726532,0.575187969924812,2.9850000000000003,2
Alabama,Cherokee,26196,01019,24014,1069,98,449,553.7,-85.59996079989199,34.17497968295821,8809.0,1524.0,10503.0,41014.0,18673,1393,2299,7157,4001,1416,1273,1134,0.135,0.027000000000000003,0.161,0.158,0.52,47.31081813256276,0.9167048404336541,0.040807756909451834,0.0037410291647579775,0.017140021377309512,0.40093907466788825,2.5410485728056558,0.8525113713345592,2.903,2
Alabama,Chilton,44428,01021,35481,4412,195,3636,692.8539999999999,-86.71979303213024,32.85025257838065,15068.0,2909.0,18255.0,45182.0,29793,1583,3719,13125,5057,2090,2728,1491,0.06,0.07,0.058,0.194,0.618,64.12317746595964,0.7986179886558027,0.09930674349509318,0.004389123975871072,0.08184028090393446,0.4108895291257765,2.553821367435304,0.8381821215998221,3.24,5
Alabama,Choctaw,12589,01023,7091,5234,22,128,913.5,-88.26394730604929,32.02241373944195,4102.0,3109.0,7268.0,34884.0,9436,512,1242,3606,1824,1027,770,455,0.049,0.038,0.126,0.219,0.568,13.781061850027369,0.5632695210104061,0.41575979029311305,0.0017475573913734214,0.010167606640718087,0.5773294145682739,2.6085205595591354,0.5688531410345306,3.2189999999999994,6
Alabama,Clarke,23622,01025,12309,10569,99,310,1238.465,-87.83209564549814,31.679890410998592,7109.0,5712.0,12936.0,36127.0,16870,905,2270,7372,2891,1314,1342,776,0.049,0.08800000000000001,0.16399999999999998,0.268,0.43,19.073611284937407,0.5210820421640844,0.4474218948437897,0.004191008382016764,0.013123359580052492,0.5476250952501905,2.5079430942501477,0.5544809297246704,2.94,6
Alabama,Clay,13235,01027,10634,1786,33,435,603.961,-85.86182353790683,33.26819989491128,5230.0,1234.0,6572.0,41225.0,9285,1030,1245,3366,1807,893,510,434,0.14800000000000002,0.158,0.195,0.16899999999999998,0.329,21.913666610923553,0.8034756327918399,0.1349452210049112,0.002493388741972044,0.03286739705326785,0.4965621458254628,2.3827679052234787,0.8090965346534653,2.371,2
Alabama,Cleburne,14910,01029,13839,410,31,387,560.1,-85.51760443449372,33.66784374695962,5738.0,684.0,6532.0,40188.0,10445,746,1618,4135,2029,489,927,501,0.151,0.125,0.138,0.217,0.368,26.62024638457418,0.928169014084507,0.027498323272971158,0.002079141515761234,0.02595573440643863,0.4380952380952381,2.4482527525131643,0.8934911242603549,2.524,2
Alabama,Coffee,52342,01031,36338,8930,830,4171,678.972,-85.98839456898331,31.402058921110644,15825.0,4194.0,20513.0,53155.0,34912,1517,3316,9723,8119,4062,5439,2736,0.101,0.152,0.094,0.18600000000000005,0.466,77.09007146097336,0.6942417179320622,0.17060868900691606,0.015857246570631617,0.07968744029651141,0.3919032516908028,3.064218606782768,0.7904990259253709,2.762,1
Alabama,Colbert,55241,01033,42935,8839,367,1789,592.619,-87.80588967135368,34.70164419827768,16718.0,7296.0,24626.0,47558.0,38638,1857,4159,13927,8611,2848,4573,2663,0.08199999999999999,0.096,0.152,0.159,0.51,93.21503360506495,0.7772306801107873,0.16000796509838708,0.006643616154667729,0.032385365941963395,0.4457920747271049,2.7972721155339304,0.6961772299491963,2.917,0
Alabama,Conecuh,12067,01035,6077,5485,27,277,850.1560000000001,-86.99002728012772,31.43204504352981,3413.0,3069.0,6543.0,33177.0,8848,617,1086,4315,1158,723,632,317,0.099,0.052000000000000005,0.259,0.192,0.399,14.193865596431715,0.5036048727935692,0.4545454545454545,0.0022375072511809065,0.02295516698433745,0.5422225905361729,2.389692585895117,0.5265350200555384,2.742,5
Alabama,Coosa,10663,01037,6945,3253,16,280,650.9259999999999,-86.24996070274753,32.9339057489659,3376.0,1780.0,5223.0,38301.0,8230,468,1207,3178,1880,544,706,247,0.055,0.131,0.16699999999999998,0.263,0.384,16.381278363439158,0.6513176404389008,0.3050736190565507,0.001500515802307043,0.026259026540373254,0.4898246272156054,2.4776427703523694,0.6547711404189294,2.79,5
Alabama,Covington,37049,01039,30774,4581,175,687,1030.4560000000001,-86.44704262593281,31.247885886292448,13222.0,2379.0,15818.0,40601.0,26438,1658,2872,9368,5921,2667,2539,1413,0.187,0.128,0.129,0.201,0.35600000000000004,35.95398542004705,0.8306297066047666,0.12364706199897435,0.004723474317795353,0.018543010607573757,0.4269480957650679,2.6935471669566535,0.8475097750144222,2.4130000000000003,1
Alabama,Crenshaw,13772,01041,9677,3250,152,333,608.84,-86.31635588711752,31.7321723778643,4511.0,1663.0,6252.0,39812.0,9675,807,1284,3753,1674,652,1100,405,0.06,0.091,0.199,0.233,0.416,22.62006438473162,0.7026575660760964,0.23598605866976474,0.01103688643624746,0.02417949462677897,0.453964565785652,2.516795865633075,0.7306446388079041,2.8520000000000003,1
Alabama,Cullman,83768,01043,76796,1045,585,3752,734.841,-86.87337990995529,34.12799501622364,32734.0,3730.0,37278.0,42558.0,57212,3181,7224,20382,12564,5995,5047,2819,0.13,0.024,0.249,0.217,0.379,113.99472811125128,0.9167701270174768,0.012474930761149843,0.006983573679686754,0.04479037341228154,0.4450148027886544,2.6534468293365028,0.8977073277753399,2.6889999999999996,0
Alabama,Dale,49172,01045,33425,10058,697,3450,561.15,-85.61103126215578,31.430677906302925,13798.0,4408.0,18617.0,45960.0,33382,1517,3215,10924,8720,3316,3739,1951,0.08900000000000001,0.113,0.118,0.22,0.46,87.62719415486055,0.6797567721467502,0.20454730334336613,0.01417473358822094,0.07016188074513953,0.3786097779223949,2.842489964651609,0.7578820169174997,2.8489999999999998,1
Alabama,Dallas,37196,01047,10032,26158,159,429,978.695,-87.10810973466297,32.32775693654059,5784.0,12826.0,18730.0,31602.0,26600,1113,4022,9368,5346,2730,2300,1721,0.095,0.1,0.159,0.122,0.524,38.00571168750224,0.2697064200451661,0.7032476610388214,0.004274653188514895,0.011533498225615658,0.5035487686848048,2.6895488721804512,0.3108006448146158,2.88,6
Alabama,DeKalb,71513,01049,57103,1057,258,10774,777.0930000000001,-85.80487501202649,34.456711875623874,21779.0,3682.0,26086.0,39233.0,47876,5762,6632,15956,8916,4525,3557,2528,0.084,0.051,0.106,0.179,0.58,92.02630830544092,0.7984981751569644,0.014780529414232378,0.003607735656454071,0.15065792233579908,0.3647728385048872,2.430132007686524,0.855386669808727,3.12,2
Alabama,Elmore,81209,01051,59351,16978,589,2563,618.485,-86.1452473221196,32.59769368916557,27619.0,8436.0,36905.0,59347.0,55759,2433,5161,18304,10983,5214,8948,4716,0.042,0.095,0.127,0.252,0.485,131.30310355142,0.7308426405940228,0.2090654976665148,0.007252890689455602,0.0315605413193119,0.4544447044046842,3.023906454563389,0.7660241298016919,3.045,5
Alabama,Escambia,36633,01053,22094,11353,111,952,945.08,-87.16047431792124,31.126496405824863,10282.0,4698.0,15213.0,35000.0,25965,1230,3562,11546,4496,1844,2079,1208,0.114,0.026,0.188,0.285,0.387,38.76179794303128,0.6031174078017089,0.30991182813310403,0.0030300548685611326,0.025987497611443238,0.4152813037425273,2.509570575775082,0.6863818424566088,2.805,5
Alabama,Etowah,102268,01055,79207,15876,791,4230,534.991,-86.0372295610576,34.04716480510881,32132.0,10350.0,43474.0,44023.0,71995,3642,7505,23665,18016,6400,7837,4930,0.096,0.103,0.17800000000000002,0.122,0.501,191.15835593495967,0.7745042437517112,0.15523917549966754,0.0077345797316853765,0.04136191183948058,0.42509876012046777,2.8230849364539203,0.756367402664658,2.8289999999999997,2
Alabama,Fayette,16302,01057,13703,1875,72,335,627.66,-87.73891196860764,33.72120846868618,6705.0,1358.0,8196.0,37458.0,11717,773,1287,4868,2486,787,1070,446,0.138,0.048,0.151,0.233,0.429,25.972660357518407,0.8405717089927617,0.11501656238498345,0.004416635995583364,0.02054962581278371,0.5027603974972396,2.530937953401041,0.8315763363512341,2.765,0
Alabama,Franklin,31362,01059,23893,1184,81,5606,633.821,-87.84309469036268,34.44236097221343,9466.0,2197.0,11955.0,40459.0,20812,2445,2390,7666,3900,1732,1624,1055,0.065,0.071,0.223,0.156,0.484,49.48084711614162,0.7618455455646961,0.03775269434347299,0.0025827434474842165,0.1787513551431669,0.3811938014157261,2.440899481068614,0.8116265111892309,2.9210000000000003,0
Alabama,Geneva,26271,01061,21951,2402,78,1095,574.408,-85.83803284716062,31.095350761807328,9967.0,1522.0,11659.0,38142.0,18598,1395,2496,6924,3943,1777,1298,765,0.17600000000000002,0.131,0.08900000000000001,0.158,0.445,45.73578362418351,0.8355601233299075,0.09143161661147273,0.002969053328765559,0.0416809409615165,0.4437973430779186,2.492794924185396,0.8675254591348246,2.563,1
Alabama,Greene,8111,01063,1423,6443,22,139,647.11,-87.95325434738001,32.85187987468096,838.0,4006.0,4862.0,21804.0,5833,548,858,2149,1252,437,371,218,0.03,0.053,0.127,0.16699999999999998,0.623,12.53419047766222,0.17544075946245838,0.7943533473061275,0.0027123659228208605,0.01713722105782271,0.5994328689434102,2.369792559574833,0.17299752270850538,3.3,6
Alabama,Hale,14651,01065,5819,8450,44,209,643.943,-87.63241145686935,32.760169518322485,3172.0,4772.0,8010.0,30571.0,10071,458,1189,4292,1954,757,936,485,0.026,0.061,0.084,0.191,0.639,22.752013765193507,0.39717425431711145,0.5767524401064774,0.0030032079721520714,0.01426523786772234,0.5467203603849566,2.606791778373548,0.3992950654582075,3.358,6
Alabama,Henry,17205,01067,11964,4374,64,463,561.75,-85.24071388505376,31.510189700628906,5623.0,2286.0,8017.0,48610.0,12167,784,1628,4081,2558,929,1300,887,0.066,0.068,0.17,0.258,0.438,30.627503337783708,0.6953792502179599,0.25422842197035744,0.0037198488811392037,0.026910781749491425,0.465969195001453,2.7124188378400587,0.7109621949677583,2.934,1
Alabama,Houston,105882,01069,69963,28685,1095,3631,579.8240000000001,-85.30047600898051,31.15163754408402,30567.0,10547.0,42030.0,45496.0,71698,2895,7366,22680,16993,6688,9505,5571,0.085,0.079,0.135,0.268,0.433,182.6105852810508,0.6607638692128974,0.2709147919381953,0.010341701139003795,0.03429289208741807,0.3969513231710772,2.948589918826188,0.743469377827504,2.885,1
Alabama,Jackson,51626,01071,45971,1725,246,1584,1077.868,-85.99804919713327,34.78106081387498,16643.0,3663.0,20785.0,39816.0,37225,2146,4380,15181,6785,3453,3450,1830,0.092,0.08900000000000001,0.11,0.249,0.46,47.89640289905629,0.8904621702243056,0.033413396350676014,0.004765040870879015,0.030682214388099018,0.4026072134195948,2.609509738079248,0.8196099674972914,2.8960000000000004,2
Alabama,Jefferson,658573,01073,326091,284126,11686,26873,1111.276,-86.89111568110866,33.55452855088513,130614.0,151581.0,290111.0,51979.0,448732,13478,32547,120037,100061,37147,88777,56685,0.049,0.037000000000000005,0.107,0.179,0.628,592.6277540413002,0.4951478423804195,0.4314267362919525,0.017744426206358292,0.04080489178876146,0.4405145671019006,3.3547574053109646,0.4628501568064636,3.3,4
Alabama,Lamar,13805,01075,11874,1399,14,263,604.846,-88.09823954914171,33.777399737273136,5819.0,1035.0,6931.0,36756.0,9893,705,1036,3950,2062,905,823,412,0.107,0.045,0.132,0.189,0.527,22.823991561488377,0.8601231437884824,0.10134009416877944,0.0010141253169141616,0.01905106845345889,0.5020644693951467,2.5602951581926616,0.8489932885906041,2.984,0
Alabama,Lauderdale,92729,01077,78425,9143,702,2652,667.697,-87.6491398858879,34.903376854144675,27735.0,9877.0,38813.0,46265.0,63429,2507,5472,22812,13336,4117,9403,5782,0.093,0.119,0.141,0.179,0.469,138.87886271766985,0.8457440498657378,0.0985991437414401,0.00757044721715968,0.028599467264825464,0.4185637718513087,2.9841082154850307,0.7373976390513666,2.8139999999999996,0
Alabama,Lawrence,32924,01079,25122,3543,70,779,690.678,-87.31379316943203,34.51928062773837,10732.0,3611.0,14623.0,44515.0,23395,1548,3371,9710,4361,1667,1795,943,0.162,0.08,0.08800000000000001,0.251,0.419,47.6691019548907,0.7630300085044345,0.10761146883732232,0.002126108613777184,0.023660551573320376,0.4441440894180537,2.443898268860868,0.7482395593669385,2.685,0
Alabama,Lee,164542,01081,111364,37261,6782,6091,607.536,-85.35324666940981,32.59860254682402,34321.0,20987.0,57668.0,48056.0,94988,2783,6266,22855,22166,8541,18645,13732,0.053,0.064,0.138,0.183,0.562,270.83497932632804,0.6768119993679426,0.2264528205564537,0.0412174399241531,0.037017904243293515,0.3504758663441553,3.4557523055543857,0.6205431402328777,3.1370000000000005,8
Alabama,Limestone,98915,01083,75002,13409,1619,6149,559.936,-86.98448065995663,34.81041614190275,28824.0,9340.0,39400.0,56460.0,64294,3728,6395,19463,13545,4796,10857,5510,0.102,0.034,0.133,0.336,0.395,176.6541176134415,0.7582469797300713,0.1355608350604054,0.01636758833341758,0.062164484658545224,0.3983217914370925,2.9938252403023613,0.7552667435279321,2.888,0
Alabama,Lowndes,9726,01085,2442,6980,35,181,715.9110000000001,-86.65145097516155,32.159456820932824,1751.0,4882.0,6676.0,30833.0,7056,417,1171,2722,1229,521,656,340,0.12,0.073,0.145,0.199,0.464,13.585487581556926,0.2510795805058606,0.7176639934196998,0.003598601686201933,0.01860991157721571,0.6864075673452601,2.5093537414965987,0.2639831147293834,2.8160000000000003,5
Alabama,Macon,18068,01087,2974,14396,102,343,608.885,-85.68942463730481,32.38729003632757,1394.0,7237.0,8748.0,32074.0,12135,564,1651,3658,2899,853,1363,1147,0.008,0.033,0.241,0.172,0.545,29.673912150898772,0.16460039849457606,0.7967677662165153,0.005645339827319017,0.018983838831082574,0.4841709098959486,2.8655129789864033,0.16151083304367975,3.2110000000000003,1
Alabama,Madison,372909,01089,240537,90968,9869,19352,801.5930000000001,-86.55163054971966,34.762676175755715,89199.0,62435.0,159473.0,63417.0,243785,7113,14504,50768,49892,19858,62705,38945,0.062,0.05,0.123,0.177,0.589,465.2099007850618,0.6450286799192296,0.243941551424074,0.02646490162479318,0.0518946981703311,0.4276458867981197,3.660368767561581,0.5882519751506918,3.1830000000000003,4
Alabama,Marengo,18863,01091,8380,9678,53,528,976.882,-87.78580700379358,32.247663236625925,5224.0,5607.0,10948.0,32809.0,13523,809,1383,5378,2654,1215,1203,881,0.033,0.151,0.118,0.18600000000000005,0.512,19.309394583992745,0.4442559508031596,0.5130679107246991,0.0028097333404018448,0.027991305730795737,0.5803954832211207,2.681505583080677,0.4823192687655803,2.9930000000000003,6
Alabama,Marion,29709,01093,27252,1120,88,800,742.2919999999999,-87.88798411615092,34.13605357143094,11273.0,1432.0,12912.0,35392.0,21354,1855,2488,7435,4843,1927,1706,1100,0.129,0.064,0.246,0.207,0.353,40.023333135747116,0.9172977885489244,0.037699013766871986,0.0029620653673970852,0.026927866976337138,0.4346157729980814,2.562751709281633,0.8872884691066509,2.589,0
Alabama,Marshall,96774,01095,77249,2490,620,14272,565.842,-86.30693410178158,34.36813351123298,29217.0,4913.0,34965.0,42490.0,63644,4796,7355,19818,14125,5317,7915,4318,0.075,0.064,0.129,0.253,0.479,171.02654097787016,0.798241263149193,0.025730051460102918,0.006406679480025627,0.1474776282885899,0.3613057226114452,2.7672207906479795,0.8560503955464401,2.997,2
Alabama,Mobile,413210,01097,233547,148488,8494,12443,1229.435,-88.20810860895595,30.787297383478,91087.0,68429.0,163387.0,46166.0,277699,9193,29054,92986,60545,22218,42033,21670,0.077,0.07,0.102,0.244,0.506,336.09747566971816,0.5652017134144866,0.3593523874059195,0.020556133685051183,0.030113017593959488,0.3954091140098256,2.9734280641990067,0.5710210887936007,3.03,3
Alabama,Monroe,20733,01099,11218,8445,93,347,1025.675,-87.36839558713925,31.568820604057738,5771.0,4310.0,10185.0,30141.0,14756,799,1610,6805,2276,1188,1283,795,0.112,0.041,0.182,0.28800000000000003,0.378,20.21400541107076,0.5410697921188443,0.4073216611199537,0.004485602662422226,0.0167366034823711,0.4912458399652728,2.5742071021957167,0.5724630493006646,2.781,5
Alabama,Montgomery,226486,01101,74059,133283,7353,8344,784.247,-86.20146718586345,32.22060714618008,33928.0,58669.0,94572.0,47990.0,150042,6616,15030,38289,31763,10213,28342,19789,0.056,0.095,0.123,0.212,0.513,288.79421916819575,0.3269915138242541,0.5884822902960889,0.03246558286163384,0.03684112925302226,0.4175622334272317,3.2537089614907826,0.3664049591239457,3.029,8
Alabama,Morgan,119679,01103,89827,15196,763,10466,579.337,-86.85238315519133,34.453680838606985,37392.0,11216.0,49991.0,49751.0,82261,5286,8420,24350,19241,7115,12416,5433,0.078,0.077,0.08199999999999999,0.304,0.459,206.57924489545812,0.7505660976445324,0.12697298607107346,0.006375387494882143,0.08745059701367826,0.4177090383442375,2.8929991125806884,0.7692560895325873,2.989,0
Alabama,Perry,8923,01105,2601,6029,56,144,719.664,-87.29824966417091,32.640423467964396,1403.0,3823.0,5255.0,23561.0,5815,615,660,2293,1069,265,474,439,0.025,0.084,0.087,0.187,0.618,12.39884168167367,0.2914938921887258,0.6756696178415331,0.006275916171691136,0.016138070155777205,0.5889274907542307,2.4964746345657782,0.2684653654802909,3.2910000000000004,6
Alabama,Pickens,19930,01107,10682,7885,60,1044,881.408,-88.08929135614927,33.279382860001604,5454.0,3972.0,9494.0,37458.0,14565,861,1968,5352,3439,986,1357,602,0.031,0.06,0.16899999999999998,0.157,0.584,22.611548794655825,0.5359759157049674,0.3956347215253387,0.003010536879076769,0.052383341695935774,0.4763672854992474,2.5629934775145897,0.5786123488224061,3.205,0
Alabama,Pike,33114,01109,18478,12406,601,802,672.0939999999999,-85.94069327200245,31.80436413293245,7681.0,5039.0,13025.0,34678.0,19258,920,2740,6405,3575,1082,2846,1690,0.06,0.131,0.145,0.333,0.33,49.26989379461803,0.5580117170985082,0.37464516518693,0.01814942320468684,0.024219363411246003,0.3933381651265326,2.8545539516045286,0.6038522012578617,2.74,1
Alabama,Randolph,22722,01111,17131,4340,95,682,580.55,-85.45920035570087,33.291530217402844,7697.0,2290.0,10130.0,41449.0,15738,1420,1920,5719,3091,1238,1436,914,0.158,0.226,0.105,0.14400000000000002,0.368,39.13874773921282,0.7539389138280082,0.19100431300061613,0.0041809699850365286,0.030014963471525394,0.4458234310360004,2.557313508705045,0.7707019124862321,2.34,2
Alabama,Russell,57961,01113,26562,25838,470,3378,641.14,-85.1865626167507,32.28610296750834,9210.0,9577.0,19136.0,40978.0,38950,2078,4417,12583,9614,3820,3876,2562,0.069,0.067,0.08,0.213,0.57,90.40303209907353,0.4582736667759356,0.44578250892841736,0.00810890081261538,0.0582805679681165,0.3301530339366125,2.784518613607189,0.49023260765422905,3.1460000000000004,1
Alabama,St. Clair,89512,01115,76431,8534,782,2185,631.9019999999999,-86.31221325588201,33.71885298468711,31579.0,5550.0,37937.0,54887.0,60698,2874,6381,21865,14038,5549,6805,3186,0.027000000000000003,0.134,0.14400000000000002,0.2,0.495,141.6548768638175,0.85386316918402,0.09533917240146572,0.008736258825632318,0.02441013495397265,0.4238202699079453,2.7605851922633367,0.8505211559697272,3.002,2
Alabama,Shelby,217702,01117,168091,28607,4852,12635,784.93,-86.66154507631303,33.26499661207799,72846.0,22927.0,99208.0,75761.0,143422,3524,7734,29106,32011,10623,40021,20403,0.022,0.075,0.118,0.24,0.545,277.35212057126114,0.7721150931089287,0.13140439683604194,0.022287346923776537,0.05803805201605865,0.4557055056912661,3.6744293065220117,0.7606110281603374,3.2110000000000003,7
Alabama,Sumter,12427,01119,3098,8824,238,149,903.887,-88.1986319300825,32.59084029234854,1581.0,4739.0,6391.0,23132.0,7858,307,931,2969,1411,525,913,802,0.055,0.068,0.118,0.197,0.562,13.748399965924945,0.2492958879858373,0.7100667900539148,0.019151846785225718,0.011990021726885007,0.5142834151444435,2.8733774497327564,0.2501582278481013,3.143,6
Alabama,Talladega,79978,01121,49800,26183,540,1913,736.775,-86.16749103144913,33.377467343415674,20596.0,12108.0,33218.0,41012.0,56122,3330,7341,19607,13255,4572,4993,3024,0.113,0.15,0.208,0.16899999999999998,0.361,108.55145736486715,0.6226712345895121,0.3273775288204256,0.006751856760609167,0.023919077746380253,0.4153392182850284,2.6320694201917254,0.6297700587084148,2.517,2
Alabama,Tallapoosa,40367,01123,27733,10756,222,1021,716.5210000000001,-85.7968286923543,32.86644758465434,12967.0,5271.0,18504.0,43361.0,28582,1534,4047,9402,5782,2573,3426,1818,0.067,0.095,0.136,0.29600000000000004,0.406,56.33749743552527,0.687021577030743,0.2664552728714049,0.005499541704857928,0.025292937300270026,0.45839423291302295,2.7474284514729552,0.7109880469349709,2.8790000000000004,2
Alabama,Tuscaloosa,209355,01125,127285,67359,3304,8308,1321.755,-87.52287706395532,33.28961721031977,47701.0,31746.0,81708.0,52221.0,127554,4025,10723,38097,27127,8913,23410,15259,0.041,0.036000000000000004,0.14400000000000002,0.247,0.532,158.3916837840598,0.6079864345250889,0.3217453607508777,0.015781806023261926,0.03968379069045402,0.3902844450813212,3.2343478056352604,0.6004128538522537,3.193,7
Alabama,Walker,63521,01127,56437,3848,322,1681,791.192,-87.30002599326517,33.804336015925124,24208.0,4486.0,29243.0,41748.0,44974,3232,5374,16685,9921,4558,3224,1980,0.09,0.081,0.145,0.256,0.429,80.28518994125321,0.8884778262306954,0.06057839139812031,0.005069189716786575,0.02646368917365911,0.46036743754034104,2.5512295993240537,0.8436606956158081,2.855,0
Alabama,Washington,16326,01129,10606,3777,184,264,1080.2069999999999,-88.20630212952089,31.409447544836613,6031.0,2366.0,8492.0,40794.0,11469,719,1524,4954,2052,944,771,505,0.018000000000000002,0.077,0.102,0.307,0.495,15.113769860776687,0.6496386132549308,0.23134876883498715,0.011270366286904324,0.01617052554208012,0.5201519049369104,2.4630743744005583,0.7182327021555317,3.182,6
Alabama,Wilcox,10373,01131,2786,7314,21,149,888.498,-87.30571979891386,31.987712686381478,1737.0,4329.0,6095.0,27237.0,7204,471,1191,2903,1390,348,642,259,0.061,0.098,0.199,0.187,0.455,11.674758975259365,0.26858189530511906,0.70509977827051,0.002024486648028536,0.014364214788392943,0.5875831485587583,2.404636313159356,0.2863501483679525,2.877,6
Alabama,Winston,23629,01133,22046,214,73,781,612.979,-87.37282173302387,34.15006038079343,9225.0,871.0,10255.0,38504.0,17184,1279,2476,6420,3451,1232,1432,894,0.13,0.046,0.328,0.183,0.312,38.547813220355025,0.9330060518853952,0.009056667654153795,0.0030894240128655466,0.033052604849972494,0.4340005924922765,2.509369180633147,0.9137282091917592,2.499,0
Alaska,Aleutians East Borough,3337,02013,302,302,1427,493,6981.943,-161.9831950348605,55.363220216584864,198.0,121.0,369.0,69706.0,2637,173,185,1061,680,202,235,101,0.067,0.032,0.034,0.316,0.551,0.4779471846160875,0.0905004495055439,0.0905004495055439,0.42762960743182504,0.1477374887623614,0.1105783637998202,2.6302616609783844,0.6206896551724138,3.252,0
Alaska,Aleutians West Census Area,5634,02016,1332,367,2174,787,4390.276,-104.98706742493981,52.81280512950863,260.0,493.0,846.0,85517.0,4107,235,224,1664,1038,271,536,139,0.078,0.031,0.03,0.337,0.524,1.283290617719706,0.2364217252396166,0.06514022009229678,0.3858714944976926,0.1396876109336173,0.1501597444089457,2.7426345264183096,0.3452855245683931,3.1980000000000004,1
Alaska,Anchorage,288000,02020,164464,15359,28106,26992,1704.683,-149.1348627756028,61.14988184215308,39942.0,32130.0,81678.0,83280.0,191994,4710,7157,45753,49990,16665,42077,25642,0.042,0.05,0.049,0.196,0.6629999999999999,168.94636715447976,0.5710555555555555,0.05332986111111111,0.09759027777777778,0.09372222222222222,0.28360416666666666,3.5393293540423136,0.5541958041958042,3.388,2
Alaska,Bethel Census Area,18386,02050,1763,174,179,503,40570.004,-159.83452910130356,60.91331459917361,809.0,2178.0,3933.0,54212.0,9677,753,1045,4371,1835,479,746,448,0.101,0.022,0.014,0.45,0.413,0.4531919691208312,0.09588817578592408,0.00946372239747634,0.009735668443380831,0.02735777221799195,0.21391275970847384,2.441459129895629,0.2708403080013391,3.052,0
Alaska,Bristol Bay Borough,836,02060,331,5,15,62,503.843,-156.70199775929862,58.74270109848445,180.0,99.0,316.0,84688.0,645,19,17,225,193,47,116,28,0.048,0.037000000000000005,0.042,0.308,0.564,1.6592470273478046,0.39593301435406697,0.005980861244019139,0.017942583732057416,0.07416267942583732,0.3779904306220096,3.072868217054264,0.6451612903225806,3.301,0
Alaska,Denali Borough,2097,02068,1667,41,113,80,12751.411,-150.00645926742598,63.673239297890895,380.0,242.0,701.0,84196.0,1601,7,18,418,355,106,461,236,0.062,0.081,0.067,0.225,0.565,0.16445238883759608,0.7949451597520267,0.0195517405817835,0.05388650453028136,0.03814973772055317,0.3342870767763472,3.7876327295440353,0.6109324758842444,3.15,0
Alaska,Dillingham Census Area,4916,02070,721,40,43,182,18568.778000000002,-158.19078230111987,59.80740408634171,426.0,699.0,1313.0,58750.0,2902,174,196,1138,697,138,296,263,0.07200000000000001,0.025,0.027000000000000003,0.391,0.484,0.2647454775968564,0.1466639544344996,0.008136696501220505,0.008746948738812042,0.037021969080553295,0.26708706265256305,2.816333563059959,0.37866666666666665,3.188,0
Alaska,Fairbanks North Star Borough,96849,02090,67064,4638,3166,7938,7338.209,-146.56607836269885,64.80808975583548,14123.0,7567.0,25076.0,77095.0,61838,1058,2323,13785,18754,5766,12681,7471,0.094,0.084,0.175,0.234,0.413,13.197907009734935,0.6924593955539035,0.04788898181705541,0.03269006391392787,0.08196264287705604,0.2589185226486593,3.5164461981305988,0.6511295527893038,2.7880000000000003,0
Alaska,Haines Borough,2530,02100,1950,14,21,91,2318.6,-135.49865868417677,59.11417945517315,370.0,374.0,883.0,64342.0,1872,22,35,561,439,114,439,262,0.055,0.05,0.123,0.419,0.35200000000000004,1.0911757094798586,0.7707509881422925,0.005533596837944664,0.008300395256916997,0.03596837944664032,0.34901185770750986,3.5774572649572653,0.4973118279569893,2.9610000000000003,0
Alaska,Hoonah-Angoon Census Area,2148,02105,1002,47,21,128,7524.915,-135.3244494581377,58.18842092588702,276.0,421.0,841.0,63603.0,1680,41,102,598,423,123,294,99,0.051,0.064,0.13,0.399,0.35600000000000004,0.2854517293550824,0.4664804469273743,0.021880819366852888,0.009776536312849162,0.0595903165735568,0.3915270018621974,3.049404761904762,0.39598278335724535,2.9450000000000003,0
Alaska,Juneau City and Borough,31974,02110,20481,398,2155,2236,2701.9309999999996,-134.23013994978638,58.447639023294286,3161.0,4273.0,8583.0,88213.0,22479,249,629,4584,6586,1552,5735,3144,0.051,0.067,0.133,0.396,0.353,11.83375889317677,0.640551698254832,0.012447613686119971,0.06739851129042347,0.06993181960342779,0.2684368549446425,3.705769829618755,0.4252085014796879,2.9330000000000003,0
Alaska,Kenai Peninsula Borough,58708,02122,46980,410,1053,2506,16075.331,-151.56682461876238,60.265555067363564,11130.0,4102.0,17134.0,66684.0,40277,810,2092,12989,11394,3614,5847,3531,0.043,0.047,0.051,0.197,0.662,3.652055438236388,0.8002316549703617,0.0069837160182598616,0.017936226749335694,0.042685834979900535,0.29185119574845003,3.1563671574347643,0.7306985294117647,3.388,0
Alaska,Ketchikan Gateway Borough,13901,02130,8877,132,1120,775,4858.414000000001,-130.93384457206116,55.58750772965183,2354.0,1295.0,4237.0,70356.0,9580,190,511,2865,2870,801,1632,711,0.025,0.149,0.174,0.256,0.396,2.8612217896622227,0.638587152003453,0.009495719732393352,0.0805697431839436,0.055751384792460966,0.3047982159556866,3.1817327766179537,0.6451082488352974,2.8489999999999998,0
Alaska,Kodiak Island Borough,12998,02150,6383,142,2776,1123,6549.579000000001,-153.78788272276762,57.66680723247121,1926.0,1250.0,3646.0,78281.0,8784,467,422,2747,2210,653,1405,880,0.042,0.043,0.049,0.233,0.633,1.9845550378123544,0.4910755500846284,0.01092475765502385,0.2135713186644099,0.08639790737036468,0.2805046930296969,3.1264799635701275,0.6064231738035264,3.372,0
Alaska,Kusilvak Census Area,8314,02158,281,32,35,249,17081.43,-163.51448053282448,62.158244638345735,0.5,0.5,0.5,35539.0,3947,297,583,2117,654,106,132,58,0.103,0.022,0.006999999999999999,0.521,0.34700000000000003,0.4867273992868278,0.03379841231657445,0.0038489295164782296,0.004209766658648063,0.029949482800096225,0.5,2.0803141626551813,0.5,2.987,0
Alaska,Lake and Peninsula Borough,1592,02164,355,20,49,55,23652.009,-156.18465892070418,58.64175246773707,113.0,138.0,346.0,46406.0,850,59,64,356,207,30,69,65,0.055,0.036000000000000004,0.04,0.299,0.5710000000000001,0.06730929283850688,0.22298994974874373,0.01256281407035176,0.030778894472361814,0.034547738693467334,0.21733668341708545,2.6494117647058824,0.45019920318725104,3.2970000000000006,0
Alaska,Matanuska-Susitna Borough,108317,02170,85160,1303,1802,5613,24607.897999999997,-149.56837869419437,62.313453056632824,18783.0,4533.0,26278.0,75905.0,66421,1472,3596,21381,19597,6302,9107,4966,0.042,0.051,0.048,0.198,0.66,4.401716879678222,0.7862108440964946,0.012029505987056509,0.01663635440420248,0.0518201205720247,0.2426027308732701,3.096731455413197,0.8055841482243953,3.381,0
Alaska,Nome Census Area,10004,02180,1487,79,139,288,22961.761000000002,-164.02999512190047,64.90154016506877,711.0,1392.0,2662.0,58987.0,5475,263,609,2347,1261,196,453,346,0.086,0.061,0.009000000000000001,0.544,0.3,0.43568086959880825,0.148640543782487,0.007896841263494603,0.013894442223110755,0.028788484606157537,0.26609356257497,2.5956164383561644,0.33808844507845937,2.911,0
Alaska,North Slope Borough,9832,02185,3043,150,525,426,88695.413,-153.44374159318534,69.31167000573936,615.0,869.0,1843.0,75431.0,6510,213,453,2797,1550,418,741,338,0.036000000000000004,0.059,0.235,0.215,0.455,0.11085127931023896,0.3094995931651749,0.015256305939788446,0.053397070789259565,0.04332790886899918,0.18744914564686735,2.7806451612903227,0.4144204851752021,2.994,0
Alaska,Northwest Arctic Borough,7621,02188,812,99,76,281,35572.584,-159.72054780891384,67.05600518704027,422.0,920.0,1720.0,62949.0,4186,243,516,1982,749,207,315,174,0.035,0.188,0.051,0.474,0.252,0.21423802105576584,0.10654769715260463,0.01299042120456633,0.009972444561081224,0.03687180160083978,0.2256921663823645,2.430482560917344,0.3144560357675112,2.72,0
Alaska,Petersburg Borough,3266,02195,2317,53,120,188,3281.982,-133.27537559293896,56.8148399119194,577.0,334.0,1063.0,66907.0,2135,70,149,680,472,175,469,120,0.042,0.095,0.14800000000000002,0.349,0.365,0.9951303815803988,0.7094304960195958,0.01622780159216167,0.03674219228413962,0.05756276791181874,0.3254745866503368,3.1334894613583137,0.6333699231613611,2.898,0
Alaska,Prince of Wales-Hyder Census Area,6203,02198,2788,35,77,241,3922.873,-132.7016049466327,55.504995716729155,831.0,666.0,1810.0,54191.0,4472,74,366,1668,1266,311,514,273,0.033,0.125,0.161,0.3,0.38,1.5812390561713316,0.4494599387393197,0.005642431081734645,0.01241334837981622,0.03885216830565855,0.29179429308399163,2.896243291592129,0.5551102204408818,2.867,0
Alaska,Sitka City and Borough,8493,02220,5236,74,621,629,2870.3390000000004,-135.29836711735595,57.23111599399592,1146.0,1261.0,2759.0,71534.0,6142,101,270,1741,1453,573,1256,748,0.048,0.077,0.13699999999999998,0.381,0.35700000000000004,2.9588839506413698,0.6165077122336041,0.008713057812316025,0.07311903920876016,0.07406099140468621,0.32485576356999885,3.446922826440898,0.4761113419194018,2.9219999999999997,0
Alaska,Skagway,1183,02230,956,10,28,79,452.325,-135.33555862789498,59.55690959771616,129.0,229.0,447.0,72237.0,809,22,29,189,245,51,222,51,0.058,0.038,0.116,0.435,0.354,2.615376112308628,0.8081149619611158,0.0084530853761623,0.02366863905325444,0.06677937447168218,0.3778529163144548,3.414091470951792,0.36033519553072624,2.991,0
Alaska,Southeast Fairbanks Census Area,6893,02240,4992,122,168,482,24768.807999999997,-143.20751117597896,63.87712703392186,1541.0,396.0,2142.0,71541.0,4455,185,251,1451,1314,403,447,404,0.064,0.071,0.14,0.272,0.453,0.27829356988031073,0.7242129696793849,0.017699115044247787,0.024372551864210067,0.0699260118961265,0.3107500362686784,3.000224466891133,0.7955601445534332,2.9789999999999996,0
Alaska,Valdez-Cordova Census Area,9202,02261,6327,75,456,518,34239.88,-144.4949890103704,61.56118889769312,1617.0,769.0,2800.0,82306.0,6465,70,189,2111,1638,476,1226,755,0.04,0.049,0.052000000000000005,0.197,0.6629999999999999,0.2687509418841421,0.6875679200173875,0.008150402086502934,0.04955444468593784,0.05629211041078026,0.30428167789610955,3.385769528228925,0.6777032690695725,3.3960000000000004,0
Alaska,Wrangell City and Borough,2502,02275,1666,15,78,76,2541.4829999999997,-131.99430845655758,56.32103401139883,512.0,177.0,760.0,57583.0,1875,61,158,705,434,129,263,125,0.035,0.119,0.16,0.312,0.374,0.9844645822930942,0.6658673061550759,0.0059952038369304565,0.03117505995203837,0.030375699440447643,0.3037569944044764,2.9072,0.7431059506531205,2.8710000000000004,0
Alaska,Yakutat City and Borough,579,02282,182,12,35,27,7649.456999999999,-140.36261008571472,59.890496679066,86.0,102.0,217.0,65833.0,451,9,28,173,132,19,76,14,0.047,0.012,0.078,0.381,0.481,0.07569164713260039,0.3143350604490501,0.02072538860103627,0.06044905008635579,0.046632124352331605,0.3747841105354059,2.9046563192904657,0.4574468085106383,3.2350000000000003,0
Alaska,Yukon-Koyukuk Census Area,5230,02290,1159,42,28,164,145504.789,-151.3900346306327,65.50874294760554,541.0,1074.0,1868.0,40000.0,3461,198,298,1394,983,125,263,200,0.044,0.047,0.126,0.425,0.358,0.035943834123562765,0.22160611854684512,0.00803059273422562,0.005353728489483747,0.03135755258126195,0.35717017208413004,2.6148511990754115,0.334984520123839,3.0060000000000002,0
Arizona,Apache,71887,04001,12935,356,303,4736,11197.521,-109.4886927112446,35.39628702928256,5315.0,12196.0,18659.0,32963.0,44426,4410,4675,14708,12196,3248,3408,1781,0.055,0.063,0.031,0.15,0.701,6.419903119627997,0.17993517604017414,0.004952216673390182,0.004214948460778722,0.06588117462128062,0.2595601430022118,2.5074731013370553,0.30352349951459084,3.379,2
Arizona,Cochise,125922,04003,68968,4847,2558,44988,6165.69,-109.75131110283009,31.87936357709411,25036.0,15291.0,43147.0,48649.0,87467,4885,6330,20560,25538,10038,12527,7589,0.053,0.025,0.147,0.194,0.581,20.423018348311388,0.5477041343053637,0.03849208240021601,0.02031416273566176,0.35726878543860485,0.3426486237512111,3.1141459064561494,0.6208247576065663,3.225,9
Arizona,Coconino,143476,04005,77608,1855,2777,20542,18618.885,-111.77080265669464,35.839234811024596,16573.0,25308.0,44929.0,57616.0,82119,3407,5108,17604,19355,7391,17349,11905,0.039,0.08,0.07,0.11,0.7020000000000001,7.70593942655535,0.5409127658981293,0.012928991608352616,0.01935515347514567,0.14317377122306169,0.31314644958041765,3.4842119363362927,0.3957164346601084,3.3580000000000005,10
Arizona,Gila,54018,04007,33293,321,436,10216,4757.933,-110.81497019620986,33.802415807462,13672.0,6746.0,21398.0,42092.0,38955,1575,4143,11144,11761,3106,4590,2636,0.073,0.014,0.03,0.336,0.547,11.353249404731006,0.6163315931726462,0.0059424636232366995,0.008071383612869784,0.1891221444703617,0.3961272168536414,2.898318572712104,0.6696052502693701,3.2700000000000005,8
Arizona,Graham,38837,04009,19803,590,237,12879,4622.597,-109.8880011701702,32.93166095642401,8025.0,3301.0,11939.0,51352.0,23531,1054,2325,7028,7105,2421,2272,1326,0.095,0.067,0.237,0.049,0.5529999999999999,8.401554364354062,0.5099003527563921,0.015191698637896853,0.006102428096917889,0.3316167572160569,0.3074130339624585,2.8343886787641828,0.7085467066925658,2.8999999999999995,1
Arizona,Greenlee,9498,04011,4320,162,65,4526,1843.126,-109.2401688575172,33.214267477490566,1892.0,1092.0,3243.0,60962.0,5955,232,426,2155,1862,571,550,159,0.111,0.08900000000000001,0.16699999999999998,0.08900000000000001,0.544,5.153201680188984,0.4548325963360708,0.017056222362602652,0.00684354600968625,0.4765213729206149,0.3414403032217309,2.73887489504618,0.6340482573726541,2.866,1
Arizona,La Paz,21108,04012,11928,185,130,5982,4499.629,-113.97969892726525,33.72996475004545,3381.0,1318.0,4931.0,33333.0,15910,1318,2288,5248,4185,899,1324,648,0.031,0.064,0.162,0.173,0.57,4.691053417959568,0.5650938032973281,0.008764449497820731,0.006158802349819974,0.2833996588971006,0.2336081106689407,2.4791326209930857,0.7195147903809321,3.187,11
Arizona,Maricopa,4485414,04013,2446089,250899,194895,1408855,9200.143,-112.49150982280672,33.3488682574538,590465.0,549040.0,1201934.0,61606.0,2811491,165555,188958,634810,685299,237799,571408,327662,0.023,0.025,0.059,0.158,0.7340000000000001,487.5374219726802,0.5453429716855568,0.05593664263766957,0.04345083865168299,0.31409698190624097,0.2679650083582028,3.3038281111339143,0.5181767521862564,3.5530000000000004,7
Arizona,Mohave,212181,04015,162835,2352,2379,35919,13311.083999999999,-113.7592756196793,35.70661836082932,54656.0,16485.0,74189.0,43266.0,155888,6618,16339,54288,45943,12596,13083,7021,0.051,0.096,0.104,0.16399999999999998,0.585,15.9401743689695,0.7674344074163096,0.011084875648620755,0.01121212549662788,0.16928471446547996,0.3496495916222471,2.6985335625577336,0.7682770835383252,3.136,3
Arizona,Navajo,110924,04017,46190,880,617,12742,9950.421999999999,-110.32133458237381,35.399226184491084,18165.0,15362.0,35409.0,40054.0,69653,4452,7511,20957,20403,5305,6509,4516,0.091,0.108,0.059,0.139,0.602,11.147667907954053,0.4164112365223036,0.007933359777865925,0.0055623670260719045,0.1148714435108723,0.3192185640618802,2.7492713881670565,0.5418021296268679,3.051,2
Arizona,Pima,1047279,04019,536236,35794,31889,395446,9187.036,-111.79044826518313,32.097214986586906,147019.0,195649.0,360762.0,51037.0,678427,31049,48181,152408,170580,59918,124844,91447,0.023,0.024,0.073,0.121,0.759,113.99530817120994,0.5120278359443854,0.03417809389856953,0.030449383593101738,0.3775937453152408,0.3444755409017081,3.3567517212610936,0.4290421048945335,3.569,0
Arizona,Pinal,462789,04021,259589,21645,7607,142276,5365.611999999999,-111.34482607873848,32.903850691284745,53857.0,35737.0,93805.0,55550.0,288250,15423,26538,85546,78844,27105,34853,19941,0.033,0.055,0.096,0.14800000000000002,0.667,86.25092533712835,0.5609230124311512,0.046770774586258536,0.01643729647852477,0.3074316805282753,0.20269496465992065,2.901970511708586,0.6011228430475255,3.359,0
Arizona,Santa Cruz,46498,04023,6966,203,265,38711,1236.9160000000002,-110.84577453331616,31.52569821346071,3650.0,10684.0,14926.0,40467.0,29228,3404,3723,7957,6308,1698,3993,2145,0.028,0.002,0.058,0.07400000000000001,0.8370000000000001,37.591881744597046,0.14981289517828725,0.004365779173297777,0.005699169856768033,0.832530431416405,0.3210030538947912,2.6751060626796224,0.2546393191014372,3.688,6
Arizona,Yavapai,235099,04025,188477,1713,2622,34641,8123.499,-112.55541072375894,34.59965331348645,58862.0,29705.0,92780.0,50180.0,171813,4544,12079,44214,50935,16771,25694,17576,0.031,0.073,0.081,0.17600000000000002,0.639,28.94060798185609,0.8016920531350622,0.007286292157771833,0.011152748416624484,0.14734643703290953,0.3946422570916933,3.2263099998253915,0.6646041979518331,3.319,4
Arizona,Yuma,213787,04027,64453,3975,2484,138131,5513.991999999999,-113.90625597469804,32.76909350801832,20586.0,18336.0,40759.0,44058.0,130819,18357,18095,33924,31847,9281,12716,6599,0.008,0.013,0.046,0.129,0.804,38.77172835941728,0.3014823165112939,0.018593272743431543,0.01161904138231043,0.6461150584460233,0.19065237830176765,2.459749730543728,0.5289039617696932,3.708,5
Arkansas,Arkansas,17486,05001,12075,4315,142,602,988.77,-91.37260076487702,34.28571178790588,3825.0,1939.0,6167.0,39466.0,12478,760,1361,4774,2770,876,1337,600,0.019,0.073,0.134,0.21600000000000005,0.557,17.684598035943647,0.6905524419535628,0.2467688436463457,0.008120782340157841,0.0344275420336269,0.35268214571657325,2.645295720468024,0.6636016655100625,3.2170000000000005,0
Arkansas,Ashley,19657,05003,13456,4766,43,1119,925.3489999999999,-91.76922328756731,33.191417794948485,5338.0,2408.0,8027.0,39635.0,13932,936,1529,5563,3188,878,1282,556,0.023,0.103,0.163,0.117,0.595,21.24279596130757,0.6845398585745536,0.2424581573993997,0.002187515897644605,0.05692628580149565,0.4083532583812383,2.5464398507034165,0.6891298734830881,3.16,0
Arkansas,Baxter,41932,05005,39544,173,196,1102,554.283,-92.33783018451338,36.288271167360406,14655.0,4163.0,19572.0,41481.0,31646,883,2864,11090,8119,2888,3675,2127,0.15,0.104,0.108,0.104,0.534,75.65088591928672,0.9430506534389008,0.004125727368119813,0.004674234474864066,0.02628064485357245,0.4667556997042831,2.9100044239398346,0.7787756403443512,2.768,2
Arkansas,Benton,279141,05007,202658,5068,11290,47630,847.357,-94.24979930634792,36.33792733918589,60751.0,27894.0,94262.0,64141.0,168838,9283,10837,49182,34895,9861,36456,18324,0.081,0.034,0.083,0.16,0.643,329.42549598339315,0.7260058536725168,0.01815569909114032,0.040445509617003585,0.1706306132026467,0.3376859723222314,3.2312275672538173,0.6853291217778781,3.252,3
Arkansas,Boone,37432,05009,35078,157,215,988,590.231,-93.09239437930405,36.30823037702515,12225.0,2925.0,15912.0,43262.0,25951,1254,2121,8779,7471,2181,2720,1425,0.129,0.145,0.122,0.189,0.416,63.41923755275477,0.9371126309040392,0.004194272280401795,0.005743748664244497,0.02639452874545843,0.4250908313742253,2.8116835574737005,0.8069306930693071,2.62,2
Arkansas,Bradley,10763,05011,5928,2905,28,1716,649.231,-92.1601153474694,33.47166922434795,2163.0,1317.0,3617.0,39510.0,7494,514,838,3120,1517,363,816,326,0.094,0.102,0.175,0.184,0.445,16.578074676039808,0.5507758060020439,0.2699061599925671,0.002601505156554864,0.1594351017374338,0.33605871968781936,2.5509741126234315,0.621551724137931,2.784,0
Arkansas,Calhoun,5189,05013,3741,1093,12,214,628.581,-92.50209298306484,33.55654635489157,1554.0,636.0,2250.0,44022.0,3750,143,506,1636,699,314,313,139,0.145,0.132,0.108,0.211,0.404,8.255101570044275,0.7209481595683176,0.2106378878396608,0.002312584312969744,0.041241086914627086,0.4336095586818269,2.541333333333333,0.7095890410958904,2.597,4
Arkansas,Carroll,28380,05015,22245,162,534,4306,630.087,-93.53740259954849,36.33968211130399,6773.0,3334.0,10656.0,43505.0,19646,1277,1511,6788,5044,1011,2546,1469,0.111,0.068,0.115,0.129,0.5770000000000001,45.0413990448938,0.7838266384778013,0.005708245243128964,0.01881606765327696,0.15172656800563775,0.3754756871035941,2.8406291357019238,0.6701296131394083,2.9930000000000003,2
Arkansas,Chicot,10118,05017,3892,5436,57,600,644.304,-91.29432327764135,33.26267594276371,1716.0,2350.0,4149.0,33051.0,7527,441,1010,2954,1617,395,800,310,0.104,0.07400000000000001,0.193,0.097,0.531,15.703767165809927,0.3846610001976675,0.5372603281280885,0.005633524411939118,0.059300256967780185,0.41006127693220007,2.5520127540852933,0.4220363994097393,2.875,0
Arkansas,Clark,22320,05019,15247,5413,145,1075,866.074,-93.17298817037864,34.04538624940219,4398.0,3606.0,8365.0,39752.0,13175,450,972,4021,2997,1093,2330,1312,0.08,0.091,0.08,0.231,0.518,25.771469874398733,0.6831093189964158,0.2425179211469534,0.006496415770609319,0.04816308243727598,0.3747759856630825,3.180189753320683,0.5494752623688156,3.016,4
Arkansas,Clay,14551,05021,13809,120,33,320,639.465,-90.41432289094959,36.36943395471639,3779.0,1999.0,5978.0,33935.0,10582,972,1075,4363,2337,607,736,492,0.08199999999999999,0.124,0.157,0.242,0.395,22.754959223726075,0.9490069411037042,0.008246855886193389,0.002267885368703182,0.021991615696515702,0.410830870730534,2.444906444906445,0.6540325372101073,2.744,1
Arkansas,Cleburne,24919,05023,23545,101,124,611,553.692,-92.02640018881571,35.538649220461174,9454.0,2101.0,11968.0,43391.0,18755,1042,1823,7630,4096,1368,1621,1175,0.036000000000000004,0.065,0.093,0.259,0.546,45.00516532657146,0.944861350776516,0.004053132148160038,0.004976122637344997,0.02451944299530479,0.4802760945463301,2.6658491069048256,0.8181739506707053,3.2119999999999997,1
Arkansas,Cleveland,7956,05025,6704,907,12,197,597.783,-92.18782933405814,33.89808624617037,2460.0,723.0,3299.0,42460.0,5696,172,477,2689,1069,369,610,310,0.107,0.03,0.16,0.231,0.472,13.309177410531914,0.8426344896933132,0.1140020110608346,0.0015082956259426848,0.02476118652589241,0.4146556058320765,2.7120786516853927,0.7728557964184731,2.931,4
Arkansas,Columbia,23457,05027,13967,8231,205,659,766.053,-93.22649193246085,33.21369787471008,5456.0,3140.0,8837.0,36148.0,14720,728,1482,5880,2841,761,1915,1113,0.241,0.07200000000000001,0.054000000000000006,0.25,0.383,30.620596747222447,0.5954299356268917,0.35089738670759263,0.008739395489619304,0.028093959159312783,0.3767318923988575,2.789538043478261,0.6347138203815729,2.462,4
Arkansas,Conway,20846,05029,16970,2350,77,836,552.25,-92.6991189547558,35.26575970890724,4844.0,2655.0,7837.0,41196.0,14592,730,1329,6333,2768,1103,1652,677,0.071,0.12,0.13699999999999998,0.34700000000000003,0.325,37.74739701222273,0.8140650484505421,0.11273145927276215,0.003693754197447952,0.040103617000863484,0.3759474239662285,2.674958881578948,0.6459527937058275,2.7350000000000003,2
Arkansas,Craighead,110332,05031,82589,18267,1374,5793,707.206,-90.63236624495251,35.83017795258183,22798.0,10474.0,34968.0,45868.0,67712,2818,4552,23120,14508,4905,10897,6912,0.078,0.123,0.138,0.341,0.32,156.0111198151599,0.7485498314179023,0.16556393430736324,0.012453322698763732,0.052505166225573725,0.31693434361744555,3.099790288279773,0.6852007694157249,2.702,1
Arkansas,Crawford,63257,05033,52887,960,931,5131,593.094,-94.24471631085892,35.585995169601155,16655.0,4476.0,22155.0,46619.0,41955,2142,4085,15708,10145,3443,4416,2016,0.155,0.1,0.16699999999999998,0.211,0.3670000000000001,106.65594324002602,0.8360655737704918,0.01517618603474714,0.014717738748280822,0.08111355265029957,0.3502379183331489,2.714432129662734,0.788178505513227,2.535,2
Arkansas,Crittenden,47955,05035,19608,25976,306,1331,609.76,-90.30838650162373,35.20376102857639,6953.0,8368.0,15798.0,39002.0,31090,1867,3594,10890,6989,2143,3801,1806,0.059,0.017,0.11,0.306,0.508,78.64569666754133,0.40888332812011263,0.5416744864977583,0.006380982170785111,0.027755187154624127,0.32943384422896466,2.7260855580572527,0.453821552118008,3.187,1
Arkansas,Cross,16419,05037,11870,3778,130,328,616.381,-90.77156177403677,35.29456826247048,4577.0,1995.0,6831.0,43838.0,11477,713,1261,4768,2232,732,963,808,0.097,0.017,0.163,0.319,0.404,26.63774516086641,0.7229429319690602,0.2300992752299165,0.00791765637371338,0.019976856081369145,0.4160423899141239,2.62124248496994,0.6964394400486914,2.9160000000000004,1
Arkansas,Dallas,7009,05039,3731,2829,17,271,667.3860000000001,-92.65607660833555,33.96940649832885,1507.0,1165.0,2741.0,36628.0,5268,231,631,2284,1082,319,570,151,0.197,0.055,0.093,0.196,0.459,10.502168160554762,0.5323155942359823,0.4036239121129976,0.002425452989014125,0.03866457411898987,0.3910686260522186,2.5582763857251334,0.5639970059880239,2.665,4
Arkansas,Desha,11361,05041,5059,5316,72,731,768.1519999999999,-91.26627753652414,33.83296481955856,1915.0,2227.0,4226.0,30234.0,7920,604,1073,3487,1507,265,640,344,0.078,0.033,0.19,0.189,0.509,14.790041554275716,0.4452953085115747,0.4679165566411408,0.006337470293108001,0.06434292755919373,0.3719742980371446,2.385353535353536,0.4623370352486722,3.016,0
Arkansas,Drew,18219,05043,12044,5092,113,684,828.3560000000001,-91.71896475163751,33.59000712713285,3967.0,2364.0,6552.0,43014.0,11728,769,975,4150,2463,951,1519,901,0.063,0.049,0.207,0.159,0.523,21.99416675921947,0.6610681157033865,0.2794884461276689,0.006202316263241671,0.037543224106701786,0.35962456775893303,2.853768758526603,0.6265992734165219,3.032,0
Arkansas,Faulkner,126007,05045,100734,15164,1520,5277,647.884,-92.33281967512129,35.15130873087863,29170.0,14525.0,46364.0,51930.0,74787,1819,4664,22846,17081,5905,13973,8499,0.066,0.027000000000000003,0.077,0.403,0.426,194.4900630359756,0.7994317775996571,0.12034252065361448,0.012062821906719468,0.04187862579063068,0.36794781242311936,3.2903846925267763,0.6675821032154708,3.094,2
Arkansas,Franklin,17715,05047,16220,151,187,574,608.857,-93.89340435964634,35.51168969102069,5034.0,1376.0,6698.0,39463.0,12074,740,1366,4844,2789,912,1088,335,0.149,0.079,0.245,0.187,0.34,29.095501899460796,0.9156082416031612,0.008523849844764323,0.010556025966694893,0.03240191927744849,0.3780976573525261,2.5276627463972168,0.7853354134165367,2.49,2
Arkansas,Fulton,12477,05049,11787,85,41,215,618.194,-91.8181617574766,36.38183841669943,3470.0,1067.0,4744.0,36184.0,8829,551,813,3282,2500,640,755,288,0.105,0.121,0.226,0.197,0.35100000000000003,20.182984629420535,0.9446982447703774,0.006812535064518715,0.0032860463252384385,0.017231706339664983,0.3802196040714915,2.5982557481028428,0.7648225699801631,2.568,1
Arkansas,Garland,99386,05051,81164,8480,831,5900,677.7810000000001,-93.14784180768363,34.576632413724944,26053.0,12283.0,40337.0,43146.0,70968,2197,6046,22357,20165,5868,9088,5247,0.025,0.102,0.068,0.21,0.596,146.63438485292446,0.8166542571388324,0.08532388867647354,0.008361338619121405,0.059364498017829476,0.4058619926347775,2.9823159733964606,0.6795962020033389,3.252,2
Arkansas,Grant,18265,05053,16853,469,73,552,631.809,-92.42310670469422,34.288542594893535,5160.0,1407.0,6855.0,51920.0,12494,281,784,5517,2686,939,1454,833,0.08199999999999999,0.043,0.127,0.258,0.489,28.909053210701337,0.9226936764303312,0.02567752532165344,0.0039967150287434985,0.03022173555981385,0.3753079660552969,2.8733792220265726,0.7857469164001827,3.0269999999999997,4
Arkansas,Greene,45325,05055,41989,798,156,1343,577.6990000000001,-90.56164429440152,36.11742269284112,10698.0,3056.0,14422.0,47497.0,29705,1103,2664,13130,6512,1562,3328,1406,0.062,0.141,0.154,0.34600000000000003,0.297,78.45781280563062,0.9263982349696636,0.017606177606177602,0.0034418091560948698,0.02963044677330392,0.31819084390512964,2.6858777983504463,0.7778100916097135,2.675,1
Arkansas,Hempstead,21532,05057,11605,6428,106,2864,727.52,-93.66764699416572,33.73074456573505,4391.0,2371.0,6984.0,41355.0,14390,1010,1724,5317,2920,1241,1367,811,0.098,0.073,0.096,0.179,0.5539999999999999,29.596437211348142,0.5389652610068735,0.29853241686791754,0.00492290544306149,0.13301133197101989,0.32435444919190043,2.6256428075052116,0.6493640934634723,3.0180000000000002,4
Arkansas,Hot Spring,33771,05059,27796,3761,127,1245,615.202,-92.94944024530788,34.31780575806029,8153.0,3137.0,11815.0,41262.0,23974,1033,2462,9489,5633,1831,2354,1172,0.059,0.086,0.079,0.21600000000000005,0.56,54.89416484341729,0.8230730508424388,0.1113677415534038,0.0037606230197506736,0.036865950075508566,0.3498563856563324,2.6889547009260037,0.7221434898139947,3.132000000000001,4
Arkansas,Howard,13202,05061,8354,2709,71,1738,588.554,-93.99318473644637,34.089399343316906,3155.0,1350.0,4634.0,35900.0,8868,630,885,3312,1969,764,996,312,0.081,0.07,0.145,0.145,0.56,22.431246750510574,0.6327829116800485,0.20519618239660656,0.005377973034388729,0.13164672019391002,0.35100742311770944,2.6301308073973844,0.7003329633740288,3.035,4
Arkansas,Independence,37825,05063,33300,869,307,2514,763.953,-91.5687028167224,35.742068241861844,9925.0,2878.0,13443.0,43523.0,25151,1315,2262,9016,5790,2014,3048,1706,0.13699999999999998,0.156,0.08800000000000001,0.179,0.44,49.512208211761724,0.8803701255783212,0.022974223397224058,0.008116325181758097,0.06646397884996695,0.35539986781229344,2.8307423164088905,0.7752089354057643,2.6289999999999996,1
Arkansas,Izard,13629,05065,12633,293,60,346,580.577,-91.91374326066791,36.09552001349229,4042.0,1111.0,5396.0,40218.0,10126,647,864,3825,2324,1069,1005,392,0.086,0.121,0.133,0.23,0.43,23.47492236171946,0.9269205370900286,0.021498275735563867,0.004402377283733216,0.02538704233619488,0.3959204637170739,2.6801303574955564,0.7843974383854065,2.797,1
Arkansas,Jackson,16719,05067,12837,2867,80,503,633.938,-91.21430003448522,35.597365547457706,3262.0,1583.0,5093.0,33174.0,12323,979,1621,5061,2722,686,763,491,0.116,0.103,0.135,0.179,0.468,26.37324154728065,0.7678090794904001,0.17148154793947007,0.0047849751779412645,0.0300855314313057,0.3046234822656857,2.386918769780086,0.6732714138286894,2.782,1
Arkansas,Jefferson,66824,05069,25575,38109,553,1473,870.7460000000001,-91.93595268708836,34.27270430078464,9231.0,15721.0,25683.0,38289.0,47396,2068,4552,18270,11131,2943,5355,3077,0.042,0.036000000000000004,0.172,0.173,0.5770000000000001,76.74339015051461,0.38272177660720696,0.5702891176822699,0.008275469891057105,0.022042978570573447,0.3843379624087154,2.774369145075534,0.3699503045848028,3.2070000000000003,0
Arkansas,Johnson,26578,05071,20904,424,692,3791,659.804,-93.45939080664394,35.569005075354134,6072.0,2421.0,8997.0,37170.0,17284,1398,2167,7124,3048,812,1777,958,0.14400000000000002,0.103,0.205,0.221,0.328,40.281659401882976,0.786515162916698,0.015953043870870647,0.026036571600571903,0.14263676725110996,0.3385130559109037,2.5133071048368434,0.7149417167078771,2.488,2
Arkansas,Lafayette,6624,05073,3913,2379,37,195,528.268,-93.60453800161136,33.24169161748965,1750.0,1028.0,2835.0,32412.0,4977,252,657,2055,872,320,645,176,0.12,0.08199999999999999,0.078,0.234,0.486,12.539090007344756,0.5907306763285024,0.3591485507246377,0.005585748792270531,0.02943840579710145,0.4279891304347826,2.6007635121559174,0.6299496040316774,2.884,4
Arkansas,Lawrence,16406,05075,15560,195,42,292,587.614,-91.10834358837714,36.04245688584105,4064.0,1263.0,5629.0,38528.0,11276,681,955,4551,2568,825,1170,526,0.085,0.128,0.153,0.298,0.337,27.91968877528445,0.9484334999390468,0.011885895404120444,0.0025600390101182496,0.017798366451298304,0.34310618066561016,2.6664597374955656,0.7629059508165947,2.676,1
Arkansas,Lee,8857,05077,3655,4787,51,206,602.621,-90.78725320281788,34.78444507812464,1229.0,1735.0,3004.0,28367.0,6786,508,1323,2770,1278,300,455,152,0.103,0.032,0.195,0.263,0.407,14.697463248044789,0.4126679462571977,0.5404764592977306,0.005758157389635317,0.023258439652252456,0.3391667607542057,2.222811671087533,0.41464237516869096,2.8390000000000004,0
Arkansas,Lincoln,13024,05079,8352,3879,28,542,561.5169999999999,-91.73350366893796,33.96137470112802,2455.0,1252.0,3814.0,45166.0,10199,497,1413,5127,1705,554,639,264,0.035,0.016,0.194,0.201,0.5539999999999999,23.194311125041622,0.6412776412776413,0.2978347665847666,0.00214987714987715,0.041615479115479116,0.29284398034398035,2.3313069908814588,0.6622605880766118,3.2230000000000003,0
Arkansas,Little River,12259,05081,8903,2407,57,457,532.253,-94.22867540165815,33.697852228467376,3604.0,1397.0,5192.0,45388.0,8791,226,815,3758,2418,571,640,363,0.07400000000000001,0.121,0.106,0.201,0.499,23.03227976169228,0.7262419446936944,0.19634554205073826,0.004649645158658945,0.037278733991353286,0.4235255730483726,2.6444090547150494,0.7206558688262348,2.932,4
Arkansas,Logan,21466,05083,19445,290,485,651,708.125,-93.71532773807311,35.21664998189976,5737.0,1712.0,7839.0,39748.0,15283,748,1530,6875,3272,1012,1266,580,0.14800000000000002,0.11,0.12,0.14300000000000002,0.479,30.313857016769642,0.9058511133886146,0.013509736327215131,0.022593869374825302,0.03032702878971397,0.36518214851392894,2.5488451220310147,0.7701704926835817,2.695,2
Arkansas,Lonoke,73309,05085,62900,4554,638,3350,770.7280000000001,-91.88957926407627,34.75564317050816,19902.0,5638.0,26766.0,57509.0,47523,1583,3780,16675,11055,4791,6767,2872,0.048,0.045,0.136,0.297,0.474,95.11656511765499,0.8580119767013601,0.06212061274877573,0.008702887776398532,0.045696981271058125,0.3651120599107886,2.9570102897544346,0.7792482380579483,3.1039999999999996,2
Arkansas,Madison,16576,05087,14802,73,119,977,834.255,-93.7265269681095,36.00752463338011,4917.0,1587.0,6782.0,43891.0,11036,937,1305,5037,1835,547,761,614,0.075,0.08800000000000001,0.159,0.114,0.564,19.869224637550868,0.8929777992277992,0.004403957528957529,0.0071790540540540545,0.05894063706563706,0.4091457528957529,2.4067596955418633,0.7559963099630996,3.004,2
Arkansas,Marion,16694,05089,15623,96,101,408,597.009,-92.68398194802157,36.26644324198304,5077.0,1377.0,6718.0,35518.0,12458,459,1177,4583,3156,935,1350,798,0.171,0.112,0.119,0.108,0.49,27.962727530070733,0.9358452138492872,0.005750569066730562,0.0060500778722894465,0.024439918533604887,0.4024200311489158,2.8165837213035796,0.7866439417415556,2.634,2
Arkansas,Miller,43257,05091,29554,10821,215,1552,625.578,-93.89105418075322,33.30819289211008,11293.0,4273.0,16015.0,41903.0,29751,1122,3048,10680,8289,1678,3283,1651,0.064,0.124,0.106,0.219,0.487,69.14725262077631,0.6832189009871235,0.25015604410846803,0.0049702938252768345,0.03587858612478905,0.3702290958688767,2.766562468488454,0.7254914557368624,2.9410000000000003,4
Arkansas,Mississippi,40651,05093,23612,14355,180,1791,900.574,-90.05513515072195,35.764488901450235,6988.0,5621.0,12995.0,37237.0,27522,2001,3304,10630,6168,1898,2180,1341,0.033,0.109,0.134,0.284,0.44,45.13898913359702,0.5808467196378932,0.3531278443334727,0.0044279353521438575,0.0440579567538314,0.31967233278394136,2.529103989535644,0.5542073122372908,2.989,1
Arkansas,Monroe,6701,05095,3638,2665,54,174,607.122,-91.20695171250593,34.67590426528143,1400.0,1298.0,2766.0,35190.0,5109,370,798,2199,962,243,390,147,0.068,0.128,0.127,0.271,0.406,11.037320340887003,0.5429040441725116,0.3977018355469333,0.008058498731532608,0.025966273690493955,0.4127742128040591,2.326482677627716,0.5189028910303929,2.819,0
Arkansas,Montgomery,8986,05097,8124,44,114,407,779.88,-93.66029626177685,34.540118471494644,2573.0,735.0,3445.0,37855.0,6708,538,923,2450,1584,491,390,332,0.081,0.095,0.136,0.166,0.521,11.522285479817407,0.9040730024482528,0.004896505675495215,0.012686401068328513,0.045292677498330734,0.38337413754729577,2.4569171138938577,0.7778113663845224,2.949,4
Arkansas,Nevada,8252,05099,5144,2519,42,389,617.837,-93.30686863989828,33.661661110506664,2001.0,1156.0,3233.0,37635.0,5952,260,527,2605,1165,479,627,289,0.14300000000000002,0.048,0.084,0.224,0.501,13.35627358024851,0.6233640329617063,0.3052593310712555,0.005089675230247213,0.047140087251575376,0.3917838099854581,2.6910282258064515,0.6338295850490973,2.892,4
Arkansas,Newton,7753,05101,7252,33,26,151,820.8960000000001,-93.22023278513441,35.92055882233452,2875.0,699.0,3731.0,39896.0,5727,312,682,2338,1185,283,586,341,0.107,0.14,0.084,0.261,0.408,9.444558141347992,0.9353798529601444,0.004256416870888688,0.003353540564942603,0.01947633174255127,0.4812330710692635,2.6228391828182294,0.8044208170117515,2.7230000000000003,2
Arkansas,Ouachita,23382,05103,12797,9297,110,598,732.783,-92.88022785445487,33.59110148493842,5347.0,4320.0,9881.0,34887.0,16716,592,1820,6958,3433,1242,1677,994,0.151,0.097,0.06,0.242,0.449,31.90849132690032,0.5473013429133522,0.3976135488837567,0.004704473526644428,0.02557522880848516,0.4225900265161235,2.7130892558028235,0.5531188579704148,2.739,4
Arkansas,Perry,10455,05105,9592,211,37,324,551.4019999999999,-92.93593113859998,34.94737326872316,2979.0,1035.0,4213.0,46071.0,7224,409,793,2938,1702,524,605,253,0.098,0.051,0.08,0.3670000000000001,0.404,18.960758212701442,0.917455762792922,0.020181731229077002,0.0035389765662362507,0.030989956958393117,0.40296508847441415,2.5490033222591357,0.742152466367713,2.928,2
Arkansas,Phillips,17782,05107,6121,10969,75,354,695.663,-90.85059297594023,34.43531846626452,2443.0,4292.0,6894.0,29263.0,12339,980,1685,3709,3249,987,1044,685,0.052000000000000005,0.061,0.134,0.276,0.477,25.561227203401646,0.34422449668203803,0.6168597458103701,0.004217748284782364,0.01990777190417276,0.3876954223371949,2.603776643163952,0.36273199703043796,3.0650000000000004,0
Arkansas,Pike,10718,05109,9330,356,59,706,600.618,-93.65488292073836,34.162369285134986,3150.0,684.0,3956.0,37406.0,7576,481,672,2946,1784,580,637,476,0.064,0.061,0.2,0.17600000000000002,0.501,17.844953031710673,0.8704982272812092,0.033215152080612056,0.005504758350438514,0.06587049822728121,0.369098712446352,2.6764783526927136,0.8215962441314554,2.9930000000000003,4
Arkansas,Poinsett,23528,05111,20291,1910,77,782,758.3889999999999,-90.66321276124472,35.57320915594586,3149.0,1878.0,5283.0,39277.0,16321,1212,1949,7228,3481,808,1195,448,0.077,0.098,0.141,0.287,0.397,31.02365672497887,0.8624192451547092,0.08117987079224752,0.003272696361781707,0.033236994219653176,0.2245409724583475,2.3738128791127995,0.6264173463298189,2.8289999999999997,1
Arkansas,Polk,19964,05113,17525,104,183,1314,857.679,-94.22703451903095,34.483542364863766,6606.0,1210.0,8121.0,37035.0,14102,807,1359,5275,3395,1394,1130,742,0.18,0.08,0.217,0.076,0.446,23.276773711376872,0.8778300941695051,0.005209376878381086,0.009166499699459029,0.06581847325185332,0.4067822079743538,2.678485321231031,0.8451893551688844,2.526,4
Arkansas,Pope,64072,05115,53427,2005,736,6152,812.548,-93.03193775257105,35.44611715046783,15694.0,4818.0,21545.0,41914.0,40359,2157,3960,14318,8917,2147,5882,2978,0.08199999999999999,0.151,0.181,0.285,0.302,78.85318775013907,0.8338587838681484,0.031292920464477465,0.011487077038331876,0.09601698089649144,0.3362623298788863,2.8547040313189127,0.7651131045241809,2.576,2
Arkansas,Prairie,8062,05117,6845,917,10,161,647.9580000000001,-91.55279635708723,34.833082163793264,2503.0,812.0,3404.0,41846.0,5972,296,766,2390,1223,394,645,258,0.062,0.17,0.103,0.273,0.391,12.442164461276812,0.849044902009427,0.1137434879682461,0.0012403870007442325,0.019970230711982142,0.4222277350533367,2.6061620897521767,0.755052790346908,2.7590000000000003,0
Arkansas,Pulaski,391911,05119,202287,147037,8755,24493,759.763,-92.31511117333838,34.77335107682366,61182.0,89377.0,157728.0,50093.0,266144,8968,16473,69644,62195,18138,55561,35165,0.028,0.027000000000000003,0.126,0.175,0.644,515.8332269405064,0.5161554536616731,0.3751795688306784,0.022339255596296098,0.06249633207539468,0.4024587214954416,3.3955039377179266,0.4063656108236638,3.38,5
Arkansas,Randolph,17958,05121,16590,205,56,402,652.191,-91.02509799295244,36.34273914277803,4508.0,1425.0,6313.0,36870.0,12268,772,1349,4362,2895,1171,1128,591,0.051,0.145,0.203,0.289,0.311,27.53487858618104,0.9238222519211492,0.01141552511415525,0.003118387348257044,0.02238556632141664,0.35154248802762,2.6596022171503098,0.7598179673015338,2.662,1
Arkansas,St. Francis,24994,05123,9959,13044,152,1368,634.771,-90.7482835121172,35.02201855031238,3195.0,4031.0,7412.0,35356.0,18340,1238,2312,7120,4414,1309,1110,837,0.087,0.006999999999999999,0.289,0.267,0.35,39.374829662980815,0.3984556293510442,0.5218852524605906,0.006081459550292071,0.05473313595262863,0.29655117228134753,2.486477644492912,0.442153335178522,2.786,0
Arkansas,Saline,122437,05125,102117,10064,1598,6292,723.6039999999999,-92.67583904251605,34.64916225033153,35852.0,13247.0,51971.0,62152.0,81408,2251,5539,25636,19806,6942,13707,7527,0.066,0.044,0.154,0.212,0.524,169.20442673064272,0.8340370966292869,0.08219737497651854,0.013051610215866118,0.051389694291758214,0.4244713607814632,3.165462853773585,0.7301981710421801,3.0839999999999996,2
Arkansas,Scott,10281,05127,8659,59,303,816,892.32,-94.0667178787121,34.860957503994136,2378.0,507.0,3017.0,35509.0,6941,458,1010,2984,1389,469,332,299,0.155,0.14,0.124,0.123,0.458,11.521651425497579,0.8422332457932108,0.005738741367571248,0.02947184126057777,0.07936971111759558,0.2934539441688552,2.373577294337992,0.824263431542461,2.589,4
Arkansas,Searcy,7881,05129,7301,27,29,224,666.095,-92.70033067220758,35.91011626218452,2955.0,601.0,3698.0,36390.0,5814,267,635,2622,1075,487,502,226,0.1,0.08800000000000001,0.125,0.149,0.5379999999999999,11.831645636132984,0.9264052785179546,0.0034259611724400453,0.003679736074102272,0.02842278898616927,0.4692297931734552,2.5658754729962157,0.8309898762654668,2.9369999999999994,2
Arkansas,Sebastian,127827,05131,87844,8529,5832,18863,531.911,-94.27412009919114,35.19394392440831,28769.0,12184.0,43557.0,43240.0,84531,5749,8481,27083,20096,6481,11258,5383,0.121,0.142,0.157,0.208,0.3720000000000001,240.31651911691998,0.6872100573431278,0.06672299279494942,0.0456241639090333,0.14756663302745116,0.34074960689056305,2.8089931504418497,0.7024882182013528,2.5680000000000005,3
Arkansas,Sevier,17007,05133,9525,630,83,5829,565.126,-94.24504249488962,33.99731280110834,3281.0,1075.0,4517.0,46667.0,10701,1469,1283,3859,2172,686,788,444,0.12,0.093,0.155,0.165,0.467,30.094173688699517,0.5600635032633622,0.03704357029458458,0.004880343388016699,0.34274122420179925,0.2655965190803787,2.3236146154565,0.7532139577594124,2.766,4
Arkansas,Sharp,17442,05135,16186,163,107,450,604.439,-91.48185877373949,36.16223222920115,5405.0,1472.0,7190.0,33708.0,12334,606,1421,5176,2807,927,902,495,0.067,0.158,0.22,0.222,0.333,28.85650992076951,0.927989909414058,0.009345258571264763,0.006134617589725949,0.025799793601651185,0.4122233688797156,2.5443489541105886,0.7859531772575251,2.596,1
Arkansas,Stone,12506,05137,11821,53,58,238,606.405,-92.1571012484102,35.860067517051505,4081.0,1189.0,5527.0,36162.0,9155,862,1007,3323,1947,843,775,398,0.067,0.092,0.11,0.234,0.498,20.62318087746639,0.9452262913801376,0.004237965776427315,0.004637773868543099,0.019030865184711337,0.4419478650247881,2.526379027853632,0.7743833017077799,3.006,2
Arkansas,Union,38682,05139,23462,12662,229,1611,1039.214,-92.59255870342507,33.169713506447856,10201.0,5667.0,16338.0,44000.0,27079,1173,2956,9543,5990,1779,4068,1570,0.116,0.179,0.098,0.262,0.344,37.22236228534258,0.6065353394343622,0.3273357117005325,0.0059200661806525,0.0416472778036296,0.4223669923995657,2.8393958417962257,0.6428661457020418,2.537,0
Arkansas,Van Buren,16545,05141,15412,96,68,522,708.143,-92.51295036091852,35.580957785047524,5382.0,1547.0,7111.0,36897.0,12270,512,1229,5387,2643,769,999,731,0.033,0.06,0.096,0.272,0.539,23.363925082928173,0.9315200967059536,0.005802357207615594,0.004110003022061046,0.03155031731640979,0.4297975219099426,2.6396903015484923,0.7767354596622891,3.2239999999999998,2
Arkansas,Washington,239187,05143,168488,8204,6069,40999,941.966,-94.21823145042258,35.976576221533705,40418.0,32296.0,78153.0,49629.0,138163,9643,11128,36295,28225,7487,27237,18148,0.034,0.028,0.101,0.18600000000000005,0.6509999999999999,253.92317769431168,0.7044195545744543,0.03429952296738535,0.02537345257058285,0.17140981742318773,0.3267443464736796,3.2093541686269123,0.5558489424319938,3.3919999999999995,3
Arkansas,White,78753,05145,69094,3546,643,3501,1035.075,-91.74526551946332,35.25631145026328,21038.0,5157.0,27451.0,43822.0,50930,2781,4673,19564,9374,3660,6568,4310,0.026,0.054000000000000006,0.152,0.277,0.491,76.08434171436852,0.8773507041001612,0.04502685611976687,0.008164768326285982,0.044455449316216526,0.34857084809467576,2.852208914195955,0.8031303683909143,3.153,1
Arkansas,Woodruff,6320,05147,4372,1630,16,140,586.7909999999999,-91.24012617511622,35.18745044843518,1344.0,1117.0,2550.0,31023.0,4722,384,559,2008,894,308,413,156,0.059,0.048,0.208,0.231,0.454,10.770444672805137,0.6917721518987342,0.2579113924050633,0.002531645569620253,0.022151898734177212,0.40348101265822783,2.433290978398984,0.5461194636326696,2.9730000000000003,0
Arkansas,Yell,21341,05149,15928,372,254,4371,929.9839999999999,-93.41030638120242,35.00156544921149,4600.0,1472.0,6389.0,42361.0,14499,1323,1569,5923,3122,599,1442,521,0.116,0.1,0.112,0.198,0.474,22.94770662721079,0.7463567780328945,0.01743123564968839,0.011901972728550677,0.20481701888383866,0.2993767864673633,2.449341333885096,0.7575757575757576,2.8139999999999996,4
California,Alameda,1671329,06001,512134,169954,529698,373055,739.0169999999999,-121.88489694916821,37.64335452169001,91189.0,486351.0,613195.0,92574.0,1156404,72042,67192,203838,207018,74613,305740,225961,0.019,0.008,0.055,0.123,0.795,2261.5569059981026,0.30642321170756925,0.1016879381617862,0.3169322138250458,0.2232085962727865,0.3668906600675271,3.7001255616549233,0.1578920940540915,3.667,0
California,Alpine,1129,06003,692,4,18,139,738.332,-119.8210006663238,38.59933265654164,211.0,318.0,575.0,64688.0,784,25,62,225,205,32,149,86,0.025,0.085,0.08800000000000001,0.19,0.612,1.5291224002210388,0.6129317980513729,0.00354295837023915,0.015943312666076175,0.12311780336581045,0.5093002657218778,3.209183673469388,0.3988657844990548,3.279,1
California,Amador,39752,06005,30742,994,575,5753,594.5830000000001,-120.64823537472263,38.44720476089429,10239.0,5904.0,17186.0,61198.0,29520,727,2137,8461,8751,3447,3910,2087,0.045,0.013,0.099,0.188,0.655,66.8569400739678,0.7733447373717046,0.025005031193399075,0.0144646810223385,0.1447222781243711,0.4323304487824512,3.0884823848238483,0.6342687232856347,3.3950000000000005,2
California,Butte,219186,06007,155415,3526,10573,37731,1636.464,-121.59797595809441,39.66955204165926,42193.0,38676.0,87847.0,48443.0,147890,5732,10091,33611,44001,15195,25926,13334,0.015,0.043,0.111,0.204,0.626,133.93878508784795,0.7090553228764611,0.016086793864571642,0.048237569917786716,0.17214146888943638,0.4007874590530417,3.243829873554669,0.5217450444546118,3.381,3
California,Calaveras,45905,06009,36672,420,719,5967,1020.012,-120.55190054672084,38.2045219233169,13072.0,7738.0,22334.0,58151.0,34602,1152,2180,9557,11000,4239,4386,2088,0.045,0.019,0.098,0.276,0.562,45.004372497578466,0.7988672257923973,0.009149330138329158,0.01566278183204444,0.12998584032240496,0.4865265221653415,3.0549679209294265,0.6281595386833253,3.2910000000000004,4
California,Colusa,21547,06011,7344,220,266,13018,1150.731,-122.23765925625887,39.17838734948549,3551.0,2659.0,6594.0,56704.0,13634,2681,1493,3225,2814,1318,1571,532,0.027000000000000003,0.031,0.092,0.151,0.7,18.724619394106877,0.3408363113194412,0.010210238084188054,0.012345106047245556,0.6041676335452731,0.3060286814869819,2.3987091095789936,0.5718196457326892,3.468,5
California,Contra Costa,1153526,06013,492393,100798,204045,300420,715.937,-121.9303861109752,37.91871569843278,105819.0,286658.0,415972.0,93712.0,777519,44759,37815,136610,169705,64293,203101,121236,0.018000000000000002,0.016,0.039,0.121,0.8059999999999999,1611.2116010207599,0.4268590391547308,0.08738251240110756,0.17688808054608218,0.26043626238160217,0.3606091236781833,3.6272335467043253,0.26961834706237564,3.681,6
California,Del Norte,27812,06015,17236,917,802,5596,1006.373,-123.89894194285593,41.74386462352736,5134.0,3485.0,9361.0,45258.0,19437,865,2819,6131,5229,1611,1619,1163,0.01,0.135,0.112,0.196,0.547,27.635876558691454,0.6197324895728462,0.03297137926075076,0.0288364734646915,0.2012081116065008,0.3365813317992233,2.689972732417554,0.5956607495069034,3.135,7
California,El Dorado,192843,06017,148903,1696,8974,25378,1707.8829999999998,-120.52807925470823,38.77987948431774,47633.0,35243.0,89228.0,80582.0,134716,3134,6165,28621,36552,14847,29222,16175,0.028,0.042,0.07200000000000001,0.183,0.675,112.9134724099953,0.7721462536882334,0.00879471902013555,0.04653526443791063,0.13159928024351414,0.4626976348635937,3.5304715104367705,0.5747502292581689,3.435,8
California,Fresno,999101,06019,286049,46274,103430,537180,5957.991,-119.65128392021076,36.75735541918628,113949.0,123660.0,250264.0,51261.0,596505,84595,62794,136851,138098,50760,82089,41318,0.021,0.022,0.059,0.156,0.741,167.69092131894794,0.28630638944411024,0.04631563775834476,0.10352306723744646,0.5376633593600647,0.2504891897816137,2.7027149814335174,0.4795651679860611,3.572,9
California,Glenn,28393,06021,14334,240,752,12079,1313.9470000000001,-122.38779261045677,39.59710833904799,5788.0,3065.0,9379.0,47395.0,17924,2467,1959,5058,4416,1540,1947,537,0.028,0.026,0.146,0.206,0.594,21.608938564493087,0.5048427429295953,0.008452787658930018,0.026485401331314055,0.42542175888423206,0.3303278977212693,2.4793572863200177,0.6537896758161076,3.3120000000000003,10
California,Humboldt,135558,06023,100078,1686,3671,16354,3567.987,-123.87622992141438,40.698762258922436,10883.0,19596.0,33636.0,45528.0,91946,2593,6285,21615,25314,8759,18017,9363,0.042,0.006,0.018000000000000002,0.069,0.865,37.99285143135331,0.7382670148571091,0.012437480635595095,0.027080659201227517,0.12064208678204165,0.24812995175496835,3.3362625889108823,0.3570655205223269,3.7089999999999996,11
California,Imperial,181215,06025,18161,4386,2134,154088,4176.603,-115.36369831126659,33.0402521554102,11295.0,28467.0,41751.0,45834.0,109338,18440,15488,26758,25980,6870,10794,5008,0.001,0.005,0.03,0.128,0.836,43.38813145515626,0.100217973125845,0.0242032944292691,0.01177606710261292,0.8503048864608338,0.23039483486466356,2.3636978909436794,0.2840651878678135,3.793,12
California,Inyo,18039,06027,10970,184,271,4230,10180.879,-117.41297467288445,36.51173692607912,4248.0,3155.0,7996.0,52874.0,13244,562,916,3883,3384,1047,2127,1325,0.033,0.011,0.008,0.058,0.889,1.7718509374288798,0.6081268362991297,0.010200121957979931,0.015023005709850878,0.23449193414269084,0.4432618216087366,3.1415735427363334,0.5738214237471295,3.7569999999999997,13
California,Kern,900202,06029,295715,46976,42400,491545,8131.916,-118.72981690372409,35.34275346839919,119164.0,86481.0,217725.0,52479.0,532100,72415,67169,147239,121060,38465,57030,28722,0.022,0.028,0.105,0.177,0.6679999999999999,110.6998645829593,0.32849849256055863,0.05218384318186363,0.04710053965665484,0.5460385557908114,0.24186238199870694,2.5111238489005827,0.5794646113447932,3.4410000000000003,14
California,Kings,152940,06031,47938,9662,5787,84514,1389.42,-119.8162431947763,36.0735300885264,17446.0,12902.0,32250.0,53865.0,92321,11849,12421,23540,23995,8078,8784,3654,0.075,0.016,0.049,0.094,0.7659999999999999,110.07470743187805,0.3134431803321564,0.06317510134693344,0.03783836798744606,0.5525957891983785,0.21086700666928207,2.4874297288807528,0.5748649004876762,3.4599999999999995,15
California,Lake,64386,06033,44367,1156,756,14171,1256.464,-122.75550411943443,39.098715392437775,5752.0,6240.0,13045.0,42475.0,46394,2620,4252,13951,12892,5355,4759,2565,0.003,0.004,0.006999999999999999,0.136,0.8490000000000001,51.24380801996715,0.6890783710744571,0.01795421364892989,0.011741682974559686,0.22009443046625046,0.2026061566178983,2.8330172005000644,0.4796531020680453,3.822000000000001,16
California,Lassen,30573,06035,19796,2432,399,5910,4541.184,-120.59398272514656,40.67394684960929,7574.0,2224.0,10422.0,56362.0,22390,854,2999,7444,6216,2180,1787,910,0.064,0.068,0.162,0.225,0.482,6.7323852105530175,0.647499427599516,0.0795473129885847,0.013050731037189678,0.1933078206260426,0.3408890197232852,2.6641357748995094,0.7730149010002041,2.995,17
California,Los Angeles,10039107,06037,2615947,798279,1485197,4881970,4057.884,-118.22437523213893,34.320441595287086,620285.0,1893770.0,2652072.0,64251.0,6845489,862926,597792,1416482,1314543,476265,1416842,760639,0.021,0.013,0.049,0.131,0.7859999999999999,2473.975845539202,0.2605756667400796,0.07951693312961003,0.14794114655815502,0.4862952451846564,0.26417409436915057,3.0571211202004713,0.24672690136055095,3.648,18
California,Madera,157327,06039,52197,5016,3244,92483,2137.069,-119.75892288985331,37.218265718376884,19221.0,13283.0,34263.0,52884.0,97015,16376,10902,24249,23760,7644,9696,4388,0.019,0.059,0.048,0.124,0.7509999999999999,73.618119021894,0.331773948527589,0.031882639343532894,0.020619474088999345,0.5878393409904212,0.21778207173593853,2.4332732051744577,0.5913426039872016,3.531,19
California,Marin,258826,06041,184116,6603,16548,42160,520.306,-122.72234657803062,38.0726238790043,17531.0,86650.0,109941.0,110217.0,190541,7366,5517,20858,32405,12377,63261,48757,0.011,0.0,0.046,0.141,0.802,497.44957774847876,0.7113504825635756,0.025511347391683988,0.06393484425830481,0.1628893542379823,0.4247679908509964,4.213282180738004,0.16827444543630796,3.7230000000000003,20
California,Mariposa,17203,06043,13645,206,262,2073,1448.816,-119.90973105431655,37.57934613921729,5185.0,3122.0,8877.0,51199.0,13659,435,881,3622,4182,1342,1997,1200,0.01,0.094,0.049,0.18600000000000005,0.6609999999999999,11.873833530275755,0.7931756089054235,0.011974655583328487,0.0152299017613207,0.12050223798174738,0.516014648607801,3.164506918515265,0.624172384735765,3.394,21
California,Mendocino,86749,06045,55820,708,1816,22379,3506.343,-123.39150522722643,39.441838796692025,3571.0,6905.0,11435.0,49233.0,61799,3725,4376,15925,17621,4911,10087,5154,0.002,0.003,0.004,0.222,0.77,24.740591550798086,0.6434656307277318,0.008161477365733322,0.0209339588928979,0.2579741553216752,0.13181708146491602,3.0759721031084646,0.3408743795341733,3.7569999999999997,22
California,Merced,277680,06047,73546,8191,19728,169442,1934.9720000000002,-120.71394523516615,37.19022963231167,18486.0,21856.0,42523.0,50129.0,158034,29236,19197,40839,35467,11244,14395,7656,0.026,0.036000000000000004,0.08900000000000001,0.146,0.703,143.50595254091533,0.2648588303082685,0.02949798329011812,0.0710458081244598,0.6102059925093632,0.1531367041198502,2.3422997582798644,0.458232115413217,3.4639999999999995,23
California,Modoc,8841,06049,6825,99,95,1291,3917.77,-120.72377634094991,41.589189830112595,2413.0,798.0,3359.0,45149.0,6773,476,498,2185,1765,771,706,372,0.068,0.019,0.095,0.204,0.615,2.2566408952031387,0.7719714964370546,0.01119782829996607,0.010745390792896731,0.14602420540662822,0.3799343965614749,2.8065849697327625,0.7514792899408284,3.281,24
California,Mono,14444,06051,9500,105,361,3875,3048.982,-118.8868787486135,37.93918472756213,2080.0,2696.0,5154.0,63018.0,10042,651,480,2290,2818,727,2336,740,0.011,0.026,0.012,0.07,0.88,4.737318882171164,0.6577125450013847,0.0072694544447521455,0.024993076710052617,0.2682774854610911,0.3568263638881196,3.2405895239992035,0.4355108877721943,3.78,25
California,Monterey,434061,06053,127497,10919,24789,257721,3280.595,-121.23760877422184,36.21777146135095,26378.0,64733.0,96676.0,66676.0,274528,53527,25289,56133,50049,22373,40485,26672,0.023,0.006,0.066,0.141,0.763,132.31166907222624,0.293730604684595,0.02515545050119684,0.05710948461160989,0.5937437364794349,0.22272445577925684,2.6942643373353543,0.289514987213399,3.613,26
California,Napa,137744,06055,71291,2859,11698,47660,748.362,-122.32895321161564,38.50782922054164,11946.0,26161.0,40393.0,84753.0,98220,9562,5108,17644,22545,9084,22549,11728,0.017,0.026,0.033,0.149,0.773,184.06065513748692,0.517561563480079,0.020755894993611336,0.08492565919386688,0.34600418167034497,0.29324689278661864,3.3341478313989006,0.3134857112866403,3.631,27
California,Nevada,99755,06057,84530,526,1349,9732,957.7719999999999,-120.7625214732497,39.30455863026484,14686.0,16199.0,33258.0,63240.0,75777,1491,2895,13945,21746,7946,17914,9840,0.003,0.054000000000000006,0.084,0.177,0.682,104.1531805064253,0.8473760713748685,0.0052729186506942005,0.013523131672597864,0.09755901959801512,0.3333968222144253,3.6477691119996836,0.4755059090173223,3.4810000000000003,28
California,Orange,3175692,06059,1265002,52738,674423,1081091,790.568,-117.7579616846953,33.69845178785342,472669.0,556544.0,1092116.0,85398.0,2151512,176790,143550,368858,436936,167740,553419,304219,0.023,0.021,0.046,0.156,0.754,4016.9751368636216,0.3983390076871435,0.01660677420858194,0.21237040619808215,0.3404269053799928,0.3438985896617178,3.4652109772104454,0.4592528465924935,3.597,29
California,Placer,398329,06061,284920,6793,31567,57381,1407.009,-120.72392329272509,39.06259285869983,78977.0,61969.0,150532.0,84357.0,265483,5604,8799,48289,70551,29895,68639,33706,0.012,0.023,0.07200000000000001,0.201,0.693,283.10337744818975,0.7152881161050287,0.017053742007235227,0.0792485608630052,0.14405428678303614,0.3779087136512782,3.6990730103245775,0.5603351638216054,3.542,30
California,Plumas,18807,06063,15627,191,179,1750,2553.0429999999997,-120.83750670416019,40.005992010288466,5079.0,3224.0,8830.0,53270.0,14430,214,660,3638,4717,1811,1922,1468,0.063,0.067,0.053,0.146,0.6709999999999999,7.366503423561609,0.8309140213750199,0.010155793055777105,0.009517732759079066,0.09305045993513053,0.4695060349869729,3.309009009009009,0.6117066120679272,3.295,31
California,Riverside,2470546,06065,841827,153649,161830,1236032,7206.48,-115.9956714791735,33.74350882690596,309514.0,339145.0,683612.0,63948.0,1530229,139524,140771,411949,381521,122746,212065,121653,0.026,0.014,0.041,0.116,0.8029999999999999,342.82284832539614,0.3407453251224628,0.062192325097367135,0.06550373884963083,0.5003072195377054,0.2767048255729705,2.8691516106412838,0.4771598019914932,3.656,32
California,Sacramento,1552058,06067,679726,151589,252671,366764,964.6439999999999,-121.34184200406031,38.452044056130546,163024.0,273768.0,467526.0,63902.0,1012283,65658,62194,225825,251910,98570,203352,104774,0.025,0.028,0.062,0.16399999999999998,0.722,1608.9438176156173,0.4379514167640641,0.09766967471576447,0.1627973954581594,0.2363081792046431,0.3012297220851283,3.2691036004753613,0.3732302789428378,3.532,33
California,San Benito,62808,06069,20593,622,1945,38214,1388.71,-121.074992331744,36.607845347852525,6471.0,10050.0,17572.0,81977.0,38076,5303,2355,9440,9794,3698,5164,2322,0.018000000000000002,0.004,0.063,0.175,0.7390000000000001,45.22758531298831,0.3278722455738122,0.009903197044962423,0.03096739268882945,0.6084256782575468,0.2797732772895173,2.7618709948524005,0.39168331214817503,3.611,34
California,San Bernardino,2180085,06071,595018,176769,159918,1186808,20056.938000000002,-116.17769300029305,34.840864578684304,253962.0,312517.0,598783.0,60164.0,1331752,121695,151170,352296,326114,110449,175216,94812,0.027000000000000003,0.022,0.048,0.134,0.768,108.69480675465022,0.2729333947988267,0.08108353573369846,0.07335402060011421,0.5443861133854873,0.2746603916819757,2.7939526278165903,0.4483167072389268,3.592,35
California,San Diego,3338330,06073,1500865,157113,398913,1140033,4206.63,-116.73248243397236,33.03331776539266,386807.0,567243.0,1011651.0,74855.0,2223376,149313,136695,409272,498566,181508,521525,326497,0.017,0.023,0.034,0.126,0.8,793.5877412560648,0.4495855712287281,0.047063352035299086,0.11949477732878415,0.34149799450623514,0.3030410414788233,3.4828009297572704,0.4054368219694984,3.6689999999999996,36
California,San Francisco,881549,06075,354369,44339,311974,134309,46.873000000000005,-122.44880043361286,37.758969591997925,34493.0,312443.0,365295.0,104552.0,689551,48708,30700,84630,95239,36270,236593,157411,0.017,0.011,0.035,0.121,0.8170000000000001,18807.181106393877,0.40198446144230215,0.05029669366081749,0.3538929770211299,0.152355683007978,0.4143785541132711,3.9999767964951114,0.099421795374363,3.7119999999999997,37
California,San Joaquin,762148,06077,232123,54281,120898,320334,1391.3220000000001,-121.27105883992256,37.934017521604055,68316.0,89791.0,166647.0,61145.0,458237,51380,45525,129211,104891,42744,57633,26853,0.054000000000000006,0.019,0.081,0.165,0.68,547.7869249533896,0.30456420537743323,0.07122107517175141,0.158627983016422,0.420304192886421,0.21865438208851826,2.703576969995876,0.43208713086707107,3.3960000000000004,38
California,San Luis Obispo,283111,06079,193943,4903,10259,64860,3298.567,-120.4044726426928,35.3871657560846,52672.0,63001.0,124575.0,70699.0,187561,7742,9381,37163,48650,19702,40138,24785,0.025,0.024,0.037000000000000005,0.16899999999999998,0.745,85.8284824895174,0.6850422625754563,0.01731829565082247,0.036236670422555115,0.22909742115283405,0.4400217582502976,3.5074722356993187,0.4553525887631513,3.585,39
California,San Mateo,766573,06081,296547,17442,228628,183978,448.408,-122.32384489543392,37.421512877746025,53731.0,219580.0,287499.0,113776.0,547899,34862,24477,82174,94317,38439,157556,116074,0.016,0.013,0.058,0.126,0.7859999999999999,1709.5435407040015,0.3868476974795617,0.02275321463187459,0.29824687277010803,0.2400006261634573,0.3750445163082968,3.85062940432452,0.19659289234608196,3.6510000000000002,40
California,Santa Barbara,446499,06083,195557,8047,24104,205535,2735.085,-120.017106623899,34.673062869992215,53740.0,100120.0,164224.0,71657.0,273815,33512,18530,49059,58863,21217,54801,37833,0.015,0.02,0.075,0.153,0.737,163.2486741728319,0.4379785844985095,0.018022436780373532,0.053984443414206974,0.4603257790051041,0.3678037352827218,3.210591092525976,0.3492785649291564,3.577,41
California,Santa Clara,1927852,06085,589546,45598,739819,482298,1290.1,-121.69134054736948,37.233084351715185,137452.0,483472.0,659148.0,116178.0,1323801,89149,68538,191695,203285,91636,361683,317815,0.015,0.014,0.04,0.168,0.764,1494.3430741802965,0.3058045949585342,0.02365223056541685,0.3837530059361403,0.2501737685257997,0.34190798878752104,3.88550242823506,0.22136686615431195,3.654,42
California,Santa Cruz,273213,06087,155094,2718,12950,92922,445.17,-121.99806902640543,37.054879850439036,20158.0,85185.0,113509.0,78041.0,178865,16298,8025,28222,38820,15890,42317,29293,0.008,0.0,0.086,0.109,0.797,613.7273401172586,0.5676669850995377,0.009948282109562868,0.04739891586417923,0.3401082671761593,0.4154597328824031,3.5324518491599814,0.19135585658278195,3.687,43
California,Shasta,180080,06089,142556,1959,5425,18935,3775.402,-122.04367372739642,40.76207583672113,47587.0,20471.0,72554.0,50905.0,126151,3000,8606,31314,40608,14628,18432,9563,0.095,0.056,0.071,0.232,0.547,47.69823187040744,0.7916259440248778,0.010878498445135495,0.0301254997778765,0.10514771212794312,0.4028987116836961,3.1795863687168557,0.6992124364512622,3.082,44
California,Sierra,3005,06091,2467,12,17,381,953.2139999999999,-120.51740319158665,39.58034203826914,1048.0,601.0,1804.0,48125.0,2330,10,146,620,806,312,207,229,0.14,0.053,0.047,0.14300000000000002,0.617,3.152492514797306,0.8209650582362729,0.003993344425956739,0.005657237936772047,0.12678868552412645,0.6003327787021631,3.202145922746781,0.6355366889023649,3.0439999999999996,45
California,Siskiyou,43539,06093,32736,612,659,5744,6277.887,-122.54083008331713,41.59210785998052,11212.0,7106.0,19836.0,44200.0,31792,1012,2169,8118,9692,3638,4730,2433,0.132,0.07400000000000001,0.08199999999999999,0.16699999999999998,0.546,6.935295267340747,0.7518776269551437,0.014056363260525048,0.01513585521027125,0.13192769700728085,0.4555915386205471,3.1542840966280825,0.6120755540997925,2.923,46
California,Solano,447643,06095,166389,61264,68450,122103,821.765,-121.93118987701645,38.2679575290442,49595.0,97159.0,156067.0,77609.0,299653,17045,18986,69822,84913,30391,54826,23670,0.043,0.046,0.035,0.14800000000000002,0.728,544.7335917202606,0.3717002164671401,0.13685905956308933,0.15291203034561024,0.272768701844997,0.34864166311100586,3.173947866365429,0.3379464954958638,3.472,47
California,Sonoma,494336,06097,311002,8021,21090,134954,1575.849,-122.89170272092859,38.529902853507046,37421.0,116027.0,164060.0,76753.0,357968,22149,20682,67183,88952,34129,78692,46181,0.022,0.012,0.022,0.149,0.795,313.6950304248694,0.6291307936302434,0.01622580592957017,0.04266328974624547,0.2730005502330399,0.33187953133091663,3.4331727975684982,0.24386762942495174,3.683,48
California,Stanislaus,550660,06099,222343,14861,30042,262068,1494.8270000000002,-120.9974921774572,37.558040684911305,72960.0,73939.0,156141.0,57387.0,339918,39361,34303,97071,85468,26192,39083,18440,0.032,0.028,0.062,0.173,0.705,368.3770764108489,0.403775469436676,0.0269876148621654,0.054556350561144815,0.4759161733192896,0.2835524643155486,2.634964903300208,0.4966677785417191,3.491,49
California,Sutter,96971,06101,43573,2108,15849,30907,602.41,-121.69614686817577,39.033473968660886,16780.0,11831.0,30429.0,56955.0,62221,7880,5817,14879,15827,6794,7345,3679,0.058,0.031,0.08,0.163,0.669,160.97176341694197,0.4493405244867022,0.02173845788947211,0.1634406162667189,0.31872415464417203,0.3137948458817585,2.7166230050947435,0.5864877145153962,3.3560000000000003,50
California,Tehama,65084,06103,43832,521,817,16776,2949.7090000000003,-122.2348107003198,40.12435104230053,14981.0,6571.0,22875.0,42899.0,43334,3093,3673,13319,13211,3329,4820,1889,0.057,0.062,0.141,0.195,0.545,22.064549418264647,0.6734681334890296,0.00800503964107922,0.012553008419888144,0.2577592034908733,0.3514688709974802,2.739050168458947,0.6951095025983668,3.109,51
California,Trinity,12285,06105,10060,70,173,907,3179.2540000000004,-123.11600971088468,40.64994177228371,2409.0,1876.0,4716.0,38497.0,9966,145,787,3325,2965,779,1482,483,0.081,0.07,0.055,0.201,0.5920000000000001,3.8641140342986118,0.8188848188848189,0.005698005698005697,0.014082214082214082,0.07382987382987383,0.3838827838827839,2.9857515552879788,0.562193698949825,3.151,52
California,Tulare,466195,06107,128955,5737,15337,305824,4824.215,-118.80216363531191,36.220651040329685,50488.0,39099.0,94571.0,47518.0,269073,50901,30444,69974,58870,20391,25710,12783,0.025,0.039,0.115,0.136,0.685,96.6364475878459,0.2766117182723967,0.0123060092879589,0.03289825073198984,0.6560001716020121,0.20285717350035928,2.3555466360430066,0.5635639099422908,3.4170000000000003,53
California,Tuolumne,54478,06109,43425,1007,714,6906,2220.884,-119.951583567619,38.026051583603575,13486.0,8580.0,23472.0,56493.0,41123,782,3154,11680,12812,4457,5286,2952,0.008,0.043,0.084,0.212,0.653,24.52987188885147,0.7971107603069129,0.01848452586365138,0.013106208010573077,0.1267667682367194,0.4308528213223687,3.0863507039856035,0.6111665004985045,3.4589999999999996,54
California,Ventura,846006,06111,378024,15115,62677,365835,1843.1329999999998,-119.08297040899885,34.45697672231852,118764.0,170489.0,307881.0,84017.0,566685,54147,34038,107135,130945,52862,117739,69819,0.024,0.011,0.033,0.156,0.777,459.0043149354929,0.44683371039921693,0.017866303548674595,0.07408576298513249,0.4324260111630414,0.3639229509010574,3.282599680598569,0.4105886542231196,3.653,55
California,Yolo,220500,06113,101321,5407,32112,70392,1014.689,-121.89414353264404,38.682867798112056,13178.0,34460.0,50623.0,65923.0,126055,9026,8154,23271,24627,8553,26649,25775,0.006999999999999999,0.005,0.04,0.156,0.7909999999999999,217.3079633266942,0.4595056689342404,0.024521541950113374,0.1456326530612245,0.3192380952380953,0.2295827664399093,3.5752964975605885,0.2766279020949662,3.717,56
California,Yuba,78668,06115,42455,2841,5241,22925,631.839,-121.34736030907135,39.266298569827015,12313.0,7234.0,21058.0,52624.0,47201,3603,4875,10898,14749,5210,5531,2335,0.057,0.035,0.071,0.16699999999999998,0.669,124.5064011559907,0.5396730563888748,0.03611379468144608,0.06662175217369197,0.2914145522957238,0.26768190369654754,2.826698586894345,0.629917634419604,3.3539999999999996,57
Colorado,Adams,517421,08001,253680,16842,21625,211139,1167.653,-104.3385957122142,39.873660195466684,73807.0,86471.0,175125.0,67575.0,318139,24508,29571,90409,71157,27536,50871,24087,0.032,0.027000000000000003,0.071,0.185,0.685,443.1290803003975,0.4902777428824883,0.032549896505940035,0.041793819732867436,0.40806036090533626,0.3384574650043195,2.9323063189360625,0.4604936422965098,3.4640000000000004,5
Colorado,Alamosa,16233,08003,7648,168,165,7725,722.643,-105.786531608891,37.573363808550795,3031.0,3168.0,6897.0,39191.0,9526,794,493,2598,2442,715,1513,971,0.052000000000000005,0.133,0.094,0.228,0.493,22.463374031160612,0.4711390377625824,0.01034928848641656,0.010164479763444834,0.47588246165219,0.4248752541119941,3.0722233886206167,0.4889498306178416,2.9770000000000003,8
Colorado,Arapahoe,656590,08005,389920,69867,41712,129681,798.1,-104.33647044257454,39.65008299619353,109638.0,148365.0,281658.0,73925.0,430193,14330,18565,89231,90029,36678,116505,64855,0.013,0.026,0.065,0.193,0.703,822.6913920561333,0.5938561354878996,0.10640887007112504,0.06352822918411795,0.1975068155165324,0.4289708950791209,3.6855109218420568,0.4249485471099173,3.547,5
Colorado,Archuleta,14029,08007,10775,80,121,2585,1350.175,-107.05201798124685,37.19480841381888,4234.0,2489.0,7290.0,50753.0,9797,325,456,2102,2326,775,2514,1299,0.041,0.041,0.155,0.276,0.488,10.390504934545524,0.7680518925083755,0.005702473447858008,0.008624991089885237,0.1842611732839119,0.519637892936061,3.582933551087068,0.6297783727502603,3.131,3
Colorado,Baca,3581,08009,3005,29,13,405,2554.967,-102.56029878755459,37.3194836648416,1716.0,278.0,2107.0,37500.0,2612,147,251,714,642,281,426,151,0.113,0.053,0.194,0.206,0.435,1.401583660376044,0.8391510751186819,0.00809829656520525,0.0036302708740575257,0.11309690030717676,0.5883831332030159,2.9728177641653906,0.8605817452357071,2.7990000000000004,2
Colorado,Bent,5577,08011,3179,391,72,1798,1512.861,-103.07350272187426,37.95491514534101,1166.0,581.0,1892.0,34392.0,4539,201,445,2208,825,295,403,162,0.033,0.036000000000000004,0.172,0.191,0.5670000000000001,3.6863928675535953,0.5700197238658777,0.0701093778016855,0.012910166756320602,0.3223955531647839,0.3392504930966469,2.5342586472791364,0.6674298797939324,3.221,2
Colorado,Boulder,326196,08013,252479,3214,15972,45579,726.289,-105.35203701544151,40.09322845752286,38766.0,124715.0,176735.0,78642.0,209850,4160,6220,25800,33198,12906,69525,58041,0.008,0.015,0.032,0.195,0.75,449.1270004089282,0.7740101043544372,0.00985297183288575,0.04896442629584667,0.13972887466431225,0.5418061533556512,4.312170598046223,0.2371284736452554,3.664,0
Colorado,Broomfield,70465,08014,53836,898,4738,8964,33.034,-105.04148011342251,39.96479924484584,14272.0,19530.0,37342.0,89624.0,45458,709,751,6667,8234,3888,15880,9329,0.018000000000000002,0.005,0.042,0.201,0.7340000000000001,2133.1052854634618,0.7640105016674945,0.012743915419002341,0.0672390548499255,0.12721209110906126,0.5299368480806074,4.173368823969378,0.4222235370688125,3.628,0
Colorado,Chaffee,20356,08015,17341,352,167,2027,1013.403,-106.19475151391623,38.751017609692674,5283.0,4773.0,10999.0,54580.0,15106,411,659,4038,3548,1382,3066,2002,0.038,0.045,0.134,0.138,0.645,20.086776928822985,0.8518864216938494,0.017292198860286892,0.008203969345647473,0.09957752014148162,0.5403320888190214,3.4588243082218986,0.5253579952267303,3.3070000000000004,1
Colorado,Cheyenne,1831,08017,1534,14,41,201,1778.276,-102.60534318464217,38.827710707278634,905.0,127.0,1076.0,55227.0,1265,26,99,460,278,149,219,34,0.016,0.187,0.106,0.398,0.292,1.029648940884317,0.8377935554341891,0.007646095030038231,0.022392135445111958,0.10977607864554888,0.5876570180229382,2.962845849802372,0.876937984496124,2.761,9
Colorado,Clear Creek,9700,08019,8517,85,108,737,395.227,-105.64536675041208,39.687825489564155,2426.0,2585.0,5532.0,69936.0,7345,19,104,1536,1662,608,2070,1346,0.002,0.015,0.138,0.123,0.723,24.54285764889545,0.8780412371134021,0.008762886597938144,0.0111340206185567,0.07597938144329898,0.5703092783505155,3.9509870660313138,0.4841349032129316,3.552,4
Colorado,Conejos,8205,08021,3749,45,30,4211,1287.391,-106.19604920455231,37.200480250318066,1885.0,1753.0,3970.0,34746.0,5301,361,350,1717,1458,346,790,279,0.06,0.106,0.093,0.195,0.545,6.3733551034611855,0.4569165143205362,0.0054844606946983536,0.003656307129798903,0.5132236441194393,0.4838513101767215,2.8609696283720054,0.5181418361737218,3.0570000000000004,8
Colorado,Costilla,3887,08023,1316,33,51,2378,1226.952,-105.42777205724043,37.27837014968315,581.0,1109.0,1820.0,30593.0,2689,332,247,640,827,129,267,247,0.034,0.07200000000000001,0.076,0.175,0.644,3.1680130926067203,0.338564445587857,0.008489837921276049,0.01312065860560844,0.611782865963468,0.4682274247491639,2.7300111565637786,0.3437869822485207,3.325,8
Colorado,Crowley,6061,08025,3191,636,69,1986,787.421,-103.78417010744691,38.32497172919622,1069.0,336.0,1511.0,37586.0,3874,149,441,1615,742,555,235,137,0.002,0.034,0.08,0.294,0.59,7.697280108099733,0.5264807787493813,0.10493317934334268,0.0113842600230985,0.32766870153440025,0.2492987955782874,2.6107382550335565,0.7608540925266903,3.4360000000000004,2
Colorado,Custer,5068,08027,4548,73,26,293,738.625,-105.3650683654916,38.109361883135584,2059.0,797.0,3064.0,44644.0,3592,89,164,754,998,263,865,459,0.017,0.098,0.153,0.234,0.498,6.8613978676595035,0.8973954222573007,0.014404104183109709,0.005130228887134964,0.05781373322809786,0.6045777426992897,3.5626391982182635,0.72093837535014,3.0980000000000003,1
Colorado,Delta,31162,08029,25300,209,234,4769,1142.05,-107.86762324339935,38.858305679819686,11584.0,4048.0,16661.0,44512.0,22133,768,1362,8446,5107,1750,3034,1666,0.087,0.094,0.07400000000000001,0.295,0.45,27.28602075215621,0.8118862717412233,0.0067068865926448885,0.007509145754444516,0.15303895770489698,0.5346575957897439,2.9702706366059735,0.7410440122824974,2.927,1
Colorado,Denver,727211,08031,399284,64632,28356,212984,153.0,-104.8776306446565,39.758212375653144,43637.0,174611.0,232291.0,63793.0,496573,31604,32439,84265,83924,26464,145105,92772,0.02,0.018000000000000002,0.062,0.194,0.7070000000000001,4753.013071895425,0.5490621016458772,0.0888765433966208,0.038992809514707565,0.29287785800819843,0.3194272363866883,3.706915196758583,0.199942267512188,3.5520000000000005,7
Colorado,Dolores,2055,08033,1804,8,6,130,1067.0510000000002,-108.52400172841986,37.751193029594596,936.0,227.0,1230.0,41714.0,1408,23,92,539,346,108,180,120,0.052000000000000005,0.039,0.066,0.252,0.591,1.925868585475296,0.8778588807785888,0.0038929440389294406,0.00291970802919708,0.06326034063260341,0.5985401459854015,3.0255681818181817,0.8048151332760103,3.2910000000000004,3
Colorado,Douglas,351154,08035,285552,5197,18570,32066,840.248,-104.92689527197471,39.329116604796255,100178.0,67045.0,182918.0,115314.0,215250,1589,2758,26287,42459,17522,80558,44077,0.013,0.041,0.081,0.192,0.6729999999999999,417.9170911445192,0.8131816809718813,0.014799774457930138,0.0528827807742472,0.0913160607596667,0.5209053577632605,4.274327526132404,0.5990683099812825,3.471,5
Colorado,Eagle,55127,08037,36923,521,649,16381,1684.53,-106.69737318420795,39.62852729860728,8153.0,12652.0,22611.0,84685.0,38042,1996,2079,5979,6053,3619,13196,5120,0.008,0.003,0.033,0.269,0.687,32.72544864146082,0.6697806882289985,0.009450904275581838,0.011772815498757416,0.2971502167721806,0.41016198958767935,3.7687818726670517,0.3918769526556116,3.6239999999999997,4
Colorado,Elbert,26729,08039,23448,339,253,2032,1850.8470000000002,-104.13580177053322,39.286830075316416,11536.0,3056.0,15689.0,96658.0,17806,78,517,4374,4310,2139,4454,1934,0.016,0.044,0.19,0.246,0.505,14.441496244692294,0.8772494294586404,0.012682853829174305,0.009465374686669907,0.07602229787870853,0.5869654682180403,3.629394586094575,0.7905701754385965,3.1820000000000004,9
